{
  "version": 0.6,
  "generator": "Overpass API 0.7.56.8 7d656e78",
  "osm3s": {
    "timestamp_osm_base": "2021-02-05T22:48:03Z",
    "copyright": "The data included in this document is from www.openstreetmap.org. The data is made available under ODbL."
  },
  "elements": [
    {
      "type": "node",
      "id": 267667124,
      "lat": 28.2141317,
      "lon": 83.9577246,
      "tags": {
        "name:en": "S-Mart",
        "shop": "supermarket"
      }
    },
    {
      "type": "node",
      "id": 713296191,
      "lat": 28.2240989,
      "lon": 83.9881464,
      "tags": {
        "contact:phone": "061550497",
        "name": "Binayek Super Market",
        "name:ne": "बिनायेक सुपर मार्केट",
        "opening_hours": "08:00-20:00",
        "shop": "supermarket"
      }
    },
    {
      "type": "node",
      "id": 713296210,
      "lat": 28.2106453,
      "lon": 83.9572319,
      "tags": {
        "contact:email": "rishi8848@hotmail.com",
        "name": "Flight Centre",
        "name:ne": "फ्लाइट सेन्टर",
        "shop": "travel_agency",
        "website": "www.travelallnepal.com"
      }
    },
    {
      "type": "node",
      "id": 713296220,
      "lat": 28.2165916,
      "lon": 83.9585732,
      "tags": {
        "name": "Phils Store",
        "name:ne": "फिल्स स्टोर",
        "shop": "convenience"
      }
    },
    {
      "type": "node",
      "id": 1346572382,
      "lat": 28.2120625,
      "lon": 83.9781702,
      "tags": {
        "addr:city": "Pokhara Lekhanath Municipality",
        "name": "Ncell Centre",
        "name:ne": "एनसल",
        "shop": "mobile_phone"
      }
    },
    {
      "type": "node",
      "id": 1349105902,
      "lat": 28.2113209,
      "lon": 83.9570232,
      "tags": {
        "contact:phone": "+97761462042",
        "contact:website": "http://www.rapidrunnerexpeditions.com",
        "name": "Rapidrunner Expeditions",
        "name:ne": "रापिड्रनर एक्स्पेडिसंन्स",
        "shop": "travel_agency"
      }
    },
    {
      "type": "node",
      "id": 1349105909,
      "lat": 28.2140324,
      "lon": 83.9577836,
      "tags": {
        "contact:phone": "+97761463359",
        "contact:website": "http://www.vintagenepal.com/",
        "email": "vintagetravel@live.com",
        "name": "Vintage Travel and Tours Pvt Ltd",
        "name:ne": "भिन्टेज ट्रावल एन्ड टूर्स",
        "opening_hours": "Mo-Su 09:00-21:00",
        "shop": "travel_agency"
      }
    },
    {
      "type": "node",
      "id": 1349105933,
      "lat": 28.2101609,
      "lon": 83.9569061,
      "tags": {
        "name": "Paranova Nepal Paragliding",
        "name:ne": "प्यारानोवा नेपाल प्यारागलाईडिंग",
        "shop": "travel_agency"
      }
    },
    {
      "type": "node",
      "id": 1353134105,
      "lat": 28.219752,
      "lon": 83.9772518,
      "tags": {
        "name": "Laxmi Kirana Store",
        "name:ne": "\\",
        "shop": "convenience"
      }
    },
    {
      "type": "node",
      "id": 1555308342,
      "lat": 28.2201389,
      "lon": 83.9577829,
      "tags": {
        "name": "Hungry Feel Bakery",
        "name:ne": "हंग्री फिल बेकरी",
        "shop": "bakery"
      }
    },
    {
      "type": "node",
      "id": 1656043973,
      "lat": 28.2394987,
      "lon": 83.9874572,
      "tags": {
        "name": "Bagbazar Mini Market",
        "name:ne": "बागबजार मिनी मार्केट",
        "shop": "kitchen"
      }
    },
    {
      "type": "node",
      "id": 2087062403,
      "lat": 28.2081248,
      "lon": 83.9593672,
      "tags": {
        "name": "Penguin Cold Store",
        "name:en": "Penguin Cold Store",
        "name:ne": "पेङ्गगुइन कोल्ड स्टोर",
        "shop": "convenience"
      }
    },
    {
      "type": "node",
      "id": 2087062780,
      "lat": 28.2085523,
      "lon": 83.9579299,
      "tags": {
        "name": "Earth Nepal",
        "name:ne": "पृथवी नेपाल ट्रावल एजेन्सी",
        "shop": "travel_agency"
      }
    },
    {
      "type": "node",
      "id": 2297964823,
      "lat": 28.2115276,
      "lon": 83.9570175,
      "tags": {
        "name": "Pandey Handicraft",
        "name:ne": "पाण्डे हस्तकला",
        "shop": "clothes"
      }
    },
    {
      "type": "node",
      "id": 2297964828,
      "lat": 28.2067164,
      "lon": 83.9588993,
      "tags": {
        "name": "The Pokhara Craft & Real Khukuri House",
        "name:ne": "पोखरा क्राफ्ट एण्ड खुकुरी घर",
        "phone": "061-462841",
        "shop": "variety_store"
      }
    },
    {
      "type": "node",
      "id": 2447231584,
      "lat": 28.2402773,
      "lon": 83.9878724,
      "tags": {
        "addr:city": "Pokhara",
        "addr:street": "Bhimkali Patan",
        "name": "Fishtail Color Lab",
        "name:ne": "फिस्टेल कलर ल्याब",
        "shop": "photo"
      }
    },
    {
      "type": "node",
      "id": 2470812238,
      "lat": 28.2070378,
      "lon": 83.9476284,
      "tags": {
        "name": "Boat Tickets",
        "name:ne": "बोट टिकेट",
        "shop": "ticket"
      }
    },
    {
      "type": "node",
      "id": 2470827893,
      "lat": 28.2096722,
      "lon": 83.9569041,
      "tags": {
        "addr:city": "Pokhara",
        "addr:street": "Baidam Road",
        "name": "Universal Trekking Shop",
        "name:ne": "युनिभर्सल ट्रेक्किंग सप",
        "shop": "clothes"
      }
    },
    {
      "type": "node",
      "id": 2476678031,
      "lat": 28.2238507,
      "lon": 83.9882938,
      "tags": {
        "addr:street": "चिप्लेढुंगा",
        "name": "Music Maniya",
        "name:ne": "म्युजिक मेनिया",
        "shop": "music"
      }
    },
    {
      "type": "node",
      "id": 2476681075,
      "lat": 28.22259,
      "lon": 83.9877185,
      "tags": {
        "addr:street": "New Road",
        "contact:phone": "+977 61 525300;+977 61 53301;+977 61 533302",
        "name": "Himalayan Computers",
        "name:ne": "हिमालयेन कम्पुटर्स",
        "shop": "computer",
        "source": "2c pokhara"
      }
    },
    {
      "type": "node",
      "id": 2480092490,
      "lat": 28.2616582,
      "lon": 83.972121,
      "tags": {
        "addr:street": "Way to Lamachaur",
        "name": "Ekta Book Stores",
        "name:ne": "एकता बुक स्टोर",
        "shop": "books"
      }
    },
    {
      "type": "node",
      "id": 2632353716,
      "lat": 28.2185555,
      "lon": 83.9586974,
      "tags": {
        "name": "Blue Sky Paragliding",
        "name:ne": "ब्लु इस्काई पारागलाईडिंग",
        "shop": "travel_agency"
      }
    },
    {
      "type": "node",
      "id": 2767334059,
      "lat": 28.2240735,
      "lon": 83.984797,
      "tags": {
        "name": "Tea Shop",
        "name:ne": "चिया पसल",
        "shop": "tea"
      }
    },
    {
      "type": "node",
      "id": 2767335428,
      "lat": 28.2239813,
      "lon": 83.9853147,
      "tags": {
        "name": "Meat Shop",
        "name:ne": "मासु पसल",
        "shop": "butcher"
      }
    },
    {
      "type": "node",
      "id": 2767340412,
      "lat": 28.2244352,
      "lon": 83.9866949,
      "tags": {
        "shop": "beauty"
      }
    },
    {
      "type": "node",
      "id": 2769799849,
      "lat": 28.2630274,
      "lon": 83.9800116,
      "tags": {
        "shop": "hardware"
      }
    },
    {
      "type": "node",
      "id": 3111728285,
      "lat": 28.2137678,
      "lon": 83.958329,
      "tags": {
        "name": "Mardi Himal Trekking shop and rental",
        "name:ne": "मर्दी हिमाल ट्रेकिंग सप एन्ड रेंटल",
        "phone": "+977 9856035765",
        "shop": "outdoor"
      }
    },
    {
      "type": "node",
      "id": 3123519024,
      "lat": 28.2067758,
      "lon": 83.9586844,
      "tags": {
        "name": "Condom House",
        "shop": "erotic"
      }
    },
    {
      "type": "node",
      "id": 3170001810,
      "lat": 28.2147892,
      "lon": 83.9859546,
      "tags": {
        "name": "Mahakali computer suppliers",
        "name:ne": "महाकाली कम्प्युटर सप्लाइज",
        "shop": "computer"
      }
    },
    {
      "type": "node",
      "id": 3404903230,
      "lat": 28.2078557,
      "lon": 83.9647277,
      "tags": {
        "name": "Apollo Packaging",
        "name:ne": "एपोलो प्याकेजिंग",
        "shop": "dairy"
      }
    },
    {
      "type": "node",
      "id": 3404903234,
      "lat": 28.2085682,
      "lon": 83.9636731,
      "tags": {
        "name": "Basanti Kirana Pasal",
        "name:ne": "बसन्ती किराना पसल",
        "shop": "convenience"
      }
    },
    {
      "type": "node",
      "id": 3404903236,
      "lat": 28.207279,
      "lon": 83.9651856,
      "tags": {
        "name": "Evergreen Cosmetics",
        "name:ne": "एभर ग्रीन कस्मेटिक",
        "shop": "beauty"
      }
    },
    {
      "type": "node",
      "id": 3404903238,
      "lat": 28.2078336,
      "lon": 83.9647589,
      "tags": {
        "name": "Maa Kalyani Tours and Travels",
        "name:ne": "माँ कलयानि पर्यटन यात्रा",
        "shop": "travel_agency"
      }
    },
    {
      "type": "node",
      "id": 3404903245,
      "lat": 28.2090214,
      "lon": 83.9631093,
      "tags": {
        "name": "Ratna Beauty Parlour and Cosmetics",
        "name:ne": "रत्न बिउटी पार्लर एन्ड कस्मेटिक",
        "shop": "beauty"
      }
    },
    {
      "type": "node",
      "id": 3404903248,
      "lat": 28.2107741,
      "lon": 83.9620475,
      "tags": {
        "name": "Shree Krishna Stationery",
        "name:ne": "श्री कृष्ण स्टेसनरी",
        "shop": "stationery"
      }
    },
    {
      "type": "node",
      "id": 3483518258,
      "lat": 28.234685,
      "lon": 83.9476379,
      "tags": {
        "shop": "kiosk"
      }
    },
    {
      "type": "node",
      "id": 3485963165,
      "lat": 28.2439534,
      "lon": 83.9484136,
      "tags": {
        "shop": "gift"
      }
    },
    {
      "type": "node",
      "id": 3521349632,
      "lat": 28.2072638,
      "lon": 83.9627968,
      "tags": {
        "name": "Amir Cold Store",
        "name:ne": "अमिर कोल्ड स्टोर",
        "shop": "convenience"
      }
    },
    {
      "type": "node",
      "id": 3521349638,
      "lat": 28.2069868,
      "lon": 83.9627174,
      "tags": {
        "name": "Fewa Trail Treks",
        "name:ne": "फेवा ट्रेल ट्रेक",
        "shop": "travel_agency"
      }
    },
    {
      "type": "node",
      "id": 3521349639,
      "lat": 28.2072195,
      "lon": 83.9627718,
      "tags": {
        "name": "Fishtail Shop",
        "name:ne": "फिस टेल शप",
        "shop": "convenience"
      }
    },
    {
      "type": "node",
      "id": 3521349658,
      "lat": 28.2075372,
      "lon": 83.9630334,
      "tags": {
        "shop": "laundry"
      }
    },
    {
      "type": "node",
      "id": 3543320733,
      "lat": 28.2807394,
      "lon": 83.934859,
      "tags": {
        "addr:city": "Pokhara",
        "addr:street": "Hemja",
        "convenience": "shop",
        "name": "Gaule Krishi Samagri Pasal",
        "phone": "+97761400125",
        "shop": "convenience"
      }
    },
    {
      "type": "node",
      "id": 3634990903,
      "lat": 28.2121539,
      "lon": 83.9570085,
      "tags": {
        "contact:phone": "+977 9846060559",
        "name": "H. Mandala",
        "name:ne": "एच.मण्डला ट्याटु सप",
        "shop": "tattoo"
      }
    },
    {
      "type": "node",
      "id": 3634990904,
      "lat": 28.2119371,
      "lon": 83.9569886,
      "tags": {
        "contact:phone": "+977 61 464456",
        "name": "Holiday Trekking Store",
        "name:ne": "होलीडे ट्रेक्किंग इस्टोर",
        "shop": "outdoor"
      }
    },
    {
      "type": "node",
      "id": 3634990905,
      "lat": 28.2121865,
      "lon": 83.9572834,
      "tags": {
        "name": "Master Arts",
        "name:ne": "मास्टर आर्ट्स",
        "shop": "art"
      }
    },
    {
      "type": "node",
      "id": 3634990915,
      "lat": 28.2123532,
      "lon": 83.9572406,
      "tags": {
        "contact:phone": "061-463174",
        "name": "Sunrise Paragliding",
        "name:ne": "सनराईज प्याराग्लैदडिग सप",
        "shop": "travel_agency",
        "website": "sunrise-paragliding.com"
      }
    },
    {
      "type": "node",
      "id": 3634990918,
      "lat": 28.2114007,
      "lon": 83.9570619,
      "tags": {
        "name": "Variety Trekking House",
        "name:ne": "भेराइटी ट्रेक्किंग हाउस",
        "shop": "outdoor"
      }
    },
    {
      "type": "node",
      "id": 3634990922,
      "lat": 28.212179,
      "lon": 83.9572616,
      "tags": {
        "name": "Yeti Trekking Gear",
        "name:ne": "येति ट्रेकिंग गीअर",
        "shop": "outdoor"
      }
    },
    {
      "type": "node",
      "id": 3635819234,
      "lat": 28.211468,
      "lon": 83.957019,
      "tags": {
        "name": "Everest Book Shop & Stationary",
        "name:ne": "एभरेस्ट बुक सप एन्ड स्टेसनरी",
        "shop": "books"
      }
    },
    {
      "type": "node",
      "id": 3635819235,
      "lat": 28.2110587,
      "lon": 83.9572842,
      "tags": {
        "name": "Mandala Trekking Shop",
        "name:ne": "मण्डला ट्रेकिंग सप",
        "shop": "outdoor"
      }
    },
    {
      "type": "node",
      "id": 3635819237,
      "lat": 28.2117236,
      "lon": 83.9570476,
      "tags": {
        "alt_name": "Women's Handicraft",
        "name": "Mountain Women Handicraft",
        "name:ne": "माउन्ट महिला हस्तकला",
        "shop": "gift"
      }
    },
    {
      "type": "node",
      "id": 3635819240,
      "lat": 28.2104555,
      "lon": 83.9572232,
      "tags": {
        "name": "Star Link Tours",
        "name:ne": "स्टार लिंक ट्रेडर्स",
        "shop": "travel_agency"
      }
    },
    {
      "type": "node",
      "id": 3635819241,
      "lat": 28.2109406,
      "lon": 83.9572653,
      "tags": {
        "name": "Tamak Art Gallery",
        "name:ne": "टमक आर्ट ग्यालरी",
        "shop": "art"
      }
    },
    {
      "type": "node",
      "id": 3635819242,
      "lat": 28.2105261,
      "lon": 83.9571975,
      "tags": {
        "name": "Village Women's Handicraft",
        "name:ne": "महिला हस्तकला समाज",
        "shop": "gift"
      }
    },
    {
      "type": "node",
      "id": 3635819244,
      "lat": 28.2111108,
      "lon": 83.9569722,
      "tags": {
        "shop": "hairdresser"
      }
    },
    {
      "type": "node",
      "id": 3637654239,
      "lat": 28.2102551,
      "lon": 83.9567249,
      "tags": {
        "name": "Anand's",
        "name:ne": "आनन्द ट्ययाटु सप",
        "shop": "tattoo"
      }
    },
    {
      "type": "node",
      "id": 3637654240,
      "lat": 28.210414,
      "lon": 83.9569459,
      "tags": {
        "email": "megacrafts@hotmail.com",
        "name": "Mega Arts 'N' Crafts",
        "name:ne": "आर्ट एन्ड क्राफ्ट्स",
        "phone": "061463125",
        "shop": "art"
      }
    },
    {
      "type": "node",
      "id": 3637654241,
      "lat": 28.209983,
      "lon": 83.956895,
      "tags": {
        "name": "Borderlands",
        "name:ne": "बोर्डरल्यान्ड्स सप",
        "shop": "travel_agency"
      }
    },
    {
      "type": "node",
      "id": 3637654242,
      "lat": 28.2113828,
      "lon": 83.9570161,
      "tags": {
        "name": "Cottage Crafts Inn",
        "name:ne": "कटेज क्राफ्ट्स इन्",
        "shop": "gift"
      }
    },
    {
      "type": "node",
      "id": 3637654243,
      "lat": 28.2103886,
      "lon": 83.9569511,
      "tags": {
        "name": "Cute Arts",
        "name:ne": "किउट आर्ट्स",
        "shop": "gift"
      }
    },
    {
      "type": "node",
      "id": 3637654246,
      "lat": 28.209814,
      "lon": 83.9568777,
      "tags": {
        "name": "Fewa Gems Shop",
        "name:ne": "फेवा जेम्स सप",
        "shop": "jewelry"
      }
    },
    {
      "type": "node",
      "id": 3637654248,
      "lat": 28.2112446,
      "lon": 83.9570012,
      "tags": {
        "name": "Full Moon",
        "name:ne": "फुल मुन सप",
        "shop": "gift"
      }
    },
    {
      "type": "node",
      "id": 3637654249,
      "lat": 28.2098803,
      "lon": 83.9568821,
      "tags": {
        "name": "German Bakery",
        "name:ne": "जर्मन बेकरी सप",
        "shop": "bakery"
      }
    },
    {
      "type": "node",
      "id": 3637654250,
      "lat": 28.2077026,
      "lon": 83.9574731,
      "tags": {
        "name": "Gorkha's Pashmina Shop",
        "name:ne": "गोर्खास पश्मिना सप",
        "shop": "gift"
      }
    },
    {
      "type": "node",
      "id": 3637654251,
      "lat": 28.2111368,
      "lon": 83.9570073,
      "tags": {
        "name": "Hi-Mount Trekking Store",
        "name:ne": "हाई.माउन्ट ट्रेक्किंग सप",
        "shop": "outdoor"
      }
    },
    {
      "type": "node",
      "id": 3637654252,
      "lat": 28.2112841,
      "lon": 83.9570032,
      "tags": {
        "contact:phone": "+977 61 464884",
        "name": "Himalaya Store",
        "name:ne": "हिमालय स्टोर",
        "shop": "alcohol"
      }
    },
    {
      "type": "node",
      "id": 3637654253,
      "lat": 28.2100084,
      "lon": 83.956863,
      "tags": {
        "name": "ITour",
        "name:ne": "आइ.टावर सप",
        "shop": "travel_agency"
      }
    },
    {
      "type": "node",
      "id": 3637654254,
      "lat": 28.2104483,
      "lon": 83.9569468,
      "tags": {
        "name": "Langtang Valley Thanka Art",
        "name:ne": "लाङ्ग्ताङ्ग भ्याली थान्का आर्ट",
        "shop": "art"
      }
    },
    {
      "type": "node",
      "id": 3637654260,
      "lat": 28.2098636,
      "lon": 83.9568748,
      "tags": {
        "name": "Rainbow",
        "name:ne": "रैन्बोव सप आर्ट",
        "shop": "art"
      }
    },
    {
      "type": "node",
      "id": 3637654261,
      "lat": 28.2097238,
      "lon": 83.9568806,
      "tags": {
        "name": "Rashi Gems Traders",
        "name:ne": "राशी जेम्स ट्रेडर्स",
        "shop": "jewelry"
      }
    },
    {
      "type": "node",
      "id": 3637654263,
      "lat": 28.2107329,
      "lon": 83.9569771,
      "tags": {
        "addr:city": "Pokhara",
        "addr:street": "Baidam Road",
        "name": "Tea House",
        "name:ne": "टि.हाउस",
        "shop": "tea"
      }
    },
    {
      "type": "node",
      "id": 3637654264,
      "lat": 28.2111997,
      "lon": 83.9570113,
      "tags": {
        "addr:street": "Baidam Road",
        "internet_access": "wlan",
        "name": "The Living Heritage",
        "name:ne": "द लिभिंग हेरिटेज",
        "shop": "gift"
      }
    },
    {
      "type": "node",
      "id": 3637654266,
      "lat": 28.2076063,
      "lon": 83.9575432,
      "tags": {
        "email": "unl.trek.nepal@gmail.com",
        "name": "Tukuche Peak Trekking Shop",
        "name:en": "Unlimited trekking nepal pvt ltd",
        "name:ne": "टुकुचे पिक ट्रेकिङ्ग सप",
        "phone": "+9779846034539",
        "shop": "outdoor",
        "website": "http://www.unlimitedtrekking.com"
      }
    },
    {
      "type": "node",
      "id": 3637654267,
      "lat": 28.2078286,
      "lon": 83.9574701,
      "tags": {
        "name": "Wangyal Thanka Art",
        "name:ne": "वान्ग्याल थान्का कला",
        "shop": "art"
      }
    },
    {
      "type": "node",
      "id": 3637654268,
      "lat": 28.2110829,
      "lon": 83.9570195,
      "tags": {
        "name": "Yak Book Shop",
        "name:ne": "याक किताब पसल",
        "shop": "books"
      }
    },
    {
      "type": "node",
      "id": 3678977217,
      "lat": 28.2683988,
      "lon": 83.9791008,
      "tags": {
        "junction": "yes",
        "name": "Sangam Fresh House",
        "name:ne": "संगम फ्रेश हाउस",
        "shop": "butcher"
      }
    },
    {
      "type": "node",
      "id": 3685327797,
      "lat": 28.2133219,
      "lon": 83.9572061,
      "tags": {
        "name": "Saleways",
        "name:ne": "सेलवयज सुपरमार्केट",
        "note": "Lowest Price Always",
        "shop": "supermarket"
      }
    },
    {
      "type": "node",
      "id": 3706508281,
      "lat": 28.2575902,
      "lon": 83.9769312,
      "tags": {
        "email": "bakery.hawa@yahoo.com",
        "fax": "056560219",
        "name": "Himalayan Bakery",
        "name:ne": "हिमालयन बेकरी",
        "opening_hours": "sunrise-sunset",
        "phone": "9845791281",
        "shop": "bakery",
        "website": "https://www.wrc.edu.np/",
        "wheelchair": "no"
      }
    },
    {
      "type": "node",
      "id": 3706599540,
      "lat": 28.2262636,
      "lon": 83.9907733,
      "tags": {
        "name": "Ozone Book shop",
        "name:ne": "ओजन किताब पसल",
        "shop": "books"
      }
    },
    {
      "type": "node",
      "id": 3710182247,
      "lat": 28.2169412,
      "lon": 83.9703016,
      "tags": {
        "addr:city": "pokhara",
        "addr:postcode": "33700",
        "addr:street": "malepatan",
        "name": "Sarada Enterprises",
        "name:ne": "सारदा इनटरप्राइजेज",
        "opening_hours": "6:00-19:30",
        "phone": "97761536516",
        "shop": "supermarket"
      }
    },
    {
      "type": "node",
      "id": 3710198952,
      "lat": 28.2236226,
      "lon": 83.9853265,
      "tags": {
        "addr:street": "चिप्लेढुंगा",
        "name": "Vegetable market",
        "name:ne": "तरकारी बजार",
        "shop": "supermarket"
      }
    },
    {
      "type": "node",
      "id": 3712340929,
      "lat": 28.2099202,
      "lon": 83.9855512,
      "tags": {
        "addr:street": "Tersapatti Road",
        "name": "HB Complex",
        "name:ne": "एज. बि. कम्प्लेस",
        "shop": "supermarket"
      }
    },
    {
      "type": "node",
      "id": 3718083625,
      "lat": 28.2238661,
      "lon": 83.9905285,
      "tags": {
        "name": "Image Computer Service",
        "name:ne": "ईमेज कम्प्युटर सर्भिस",
        "note": "Photocopy, Flex, Typing, Printing, Graphic Designing",
        "operator": "Bishow Pradhan",
        "shop": "computer"
      }
    },
    {
      "type": "node",
      "id": 3808120882,
      "lat": 28.2182645,
      "lon": 83.9857208,
      "tags": {
        "addr:city": "Pokhara",
        "addr:street": "sangam marga",
        "email": "Kanchancomputersawa@gmail.com",
        "name": "Kanchan Computer",
        "name:ne": "कन्चन कम्प्युटर",
        "operator": "Chinta Mani Bastola",
        "phone": "+977-061551426",
        "shop": "computer"
      }
    },
    {
      "type": "node",
      "id": 3912162158,
      "lat": 28.2396205,
      "lon": 83.988476,
      "tags": {
        "name": "My Books and Stationary",
        "name:ne": "मेरो किताब पसल",
        "opening_hours": "10:00-18:00",
        "shop": "stationery"
      }
    },
    {
      "type": "node",
      "id": 3948205317,
      "lat": 28.2195653,
      "lon": 83.9911621,
      "tags": {
        "shop": "supermarket"
      }
    },
    {
      "type": "node",
      "id": 3981351135,
      "lat": 28.2150629,
      "lon": 83.9892129,
      "tags": {
        "name": "New Bullet Traders",
        "name:ne": "न्यु बुल्लेट ट्रेडर्स",
        "shop": "motorcycle"
      }
    },
    {
      "type": "node",
      "id": 4008695800,
      "lat": 28.2082774,
      "lon": 83.9848481,
      "tags": {
        "shop": "convenience"
      }
    },
    {
      "type": "node",
      "id": 4008696232,
      "lat": 28.2123233,
      "lon": 83.9572367,
      "tags": {
        "contact:email": "info@easternlighttrek.com",
        "contact:phone": "+977-61463303",
        "name": "Eastern Light Trek Pvt. Ltd.",
        "shop": "travel_agency",
        "website": "https://easternlighttrek.com/"
      }
    },
    {
      "type": "node",
      "id": 4016950502,
      "lat": 28.2261143,
      "lon": 83.9909808,
      "tags": {
        "name": "Manakamana Books",
        "name:ne": "मनकामना पुष्तक",
        "shop": "books"
      }
    },
    {
      "type": "node",
      "id": 4040325899,
      "lat": 28.2617553,
      "lon": 83.9724841,
      "tags": {
        "name": "Pragati pustak pasal",
        "name:ne": "प्रगति पुस्तकपसल",
        "shop": "stationery"
      }
    },
    {
      "type": "node",
      "id": 4040332595,
      "lat": 28.2431363,
      "lon": 83.9839057,
      "tags": {
        "name": "Sandesh Kirana Paasal",
        "name:ne": "सन्देश किराना पसल",
        "shop": "convenience"
      }
    },
    {
      "type": "node",
      "id": 4040332965,
      "lat": 28.2617705,
      "lon": 83.9725013,
      "tags": {
        "name": "Basnet Gents and Ladies Fancy Store",
        "name:ne": "बस्नेत जेन्ट्स एंड लेडिज फेन्सी स्टोर",
        "shop": "clothes"
      }
    },
    {
      "type": "node",
      "id": 4040332966,
      "lat": 28.2617419,
      "lon": 83.9724637,
      "tags": {
        "name": "KK tailor",
        "name:ne": "के के टेलर",
        "shop": "tailor"
      }
    },
    {
      "type": "node",
      "id": 4040333595,
      "lat": 28.24275,
      "lon": 83.9848544,
      "tags": {
        "name": "Susil And Gaurav Cosmetic Shop",
        "name:ne": "सुसिल एण्ड गौरभ कस्मेटिक शप",
        "shop": "clothes"
      }
    },
    {
      "type": "node",
      "id": 4040334273,
      "lat": 28.2427244,
      "lon": 83.9848818,
      "tags": {
        "name": "Koirala Books And Stationary",
        "name:ne": "कोईराला किताब एण्ड इस्टेस्नरी",
        "shop": "stationery"
      }
    },
    {
      "type": "node",
      "id": 4040338539,
      "lat": 28.2616734,
      "lon": 83.9721062,
      "tags": {
        "name": "Lamachaur Shopping Center",
        "name:ne": "लामाचौर सपिंग सेन्टर",
        "shop": "department_store"
      }
    },
    {
      "type": "node",
      "id": 4040340289,
      "lat": 28.26173,
      "lon": 83.972136,
      "tags": {
        "name": "Kanchan Fancy",
        "name:ne": "कन्चन फेन्सी",
        "shop": "clothes"
      }
    },
    {
      "type": "node",
      "id": 4040346481,
      "lat": 28.2421429,
      "lon": 83.9854675,
      "tags": {
        "name": "Bhandary Fancy Store",
        "name:ne": "भन्डारी फ्यान्सी स्टोर",
        "shop": "clothes"
      }
    },
    {
      "type": "node",
      "id": 4040351923,
      "lat": 28.2421916,
      "lon": 83.9854058,
      "tags": {
        "name": "Parbat Fancy Store",
        "name:ne": "प्रवाद फ्यान्सी स्टोर",
        "shop": "clothes"
      }
    },
    {
      "type": "node",
      "id": 4040353270,
      "lat": 28.2674156,
      "lon": 83.9760951,
      "tags": {
        "name": "Basnet cold store",
        "name:ne": "वस्नेत",
        "shop": "tea"
      }
    },
    {
      "type": "node",
      "id": 4040353271,
      "lat": 28.2675946,
      "lon": 83.9760256,
      "tags": {
        "name": "cave view cold store",
        "name:ne": "गुफा भिउ कोल्ड स्टोर",
        "shop": "tea"
      }
    },
    {
      "type": "node",
      "id": 4040353272,
      "lat": 28.2675011,
      "lon": 83.9759931,
      "tags": {
        "name": "chameri gufa cold store",
        "name:ne": "चमेरो गुफा कोल्ड स्टोर",
        "shop": "tea"
      }
    },
    {
      "type": "node",
      "id": 4040354285,
      "lat": 28.2419428,
      "lon": 83.9857159,
      "tags": {
        "name": "Dahal Fancy Store",
        "name:ne": "दाहाल फ्यान्सी स्टोर",
        "shop": "clothes"
      }
    },
    {
      "type": "node",
      "id": 4040357222,
      "lat": 28.2400859,
      "lon": 83.9884147,
      "tags": {
        "name": "Sagun Accessories",
        "name:ne": "सगुन यासेसोरिज",
        "shop": "supermarket"
      }
    },
    {
      "type": "node",
      "id": 4040361023,
      "lat": 28.2400307,
      "lon": 83.9882776,
      "tags": {
        "name": "Srijana Stationery and Books",
        "name:ne": "सिर्जना पुस्तक पसल",
        "shop": "stationery"
      }
    },
    {
      "type": "node",
      "id": 4040373559,
      "lat": 28.2394893,
      "lon": 83.9874236,
      "tags": {
        "name": "Bagbazaar Diary and Stores",
        "name:ne": "बागबजार डेरी एण्ड स्टोर",
        "shop": "dairy"
      }
    },
    {
      "type": "node",
      "id": 4040381448,
      "lat": 28.2682977,
      "lon": 83.9787043,
      "tags": {
        "name": "Adhikari Kirana Pasal",
        "name:ne": "अधिकारी किराना पसल",
        "shop": "convenience"
      }
    },
    {
      "type": "node",
      "id": 4040383650,
      "lat": 28.2394052,
      "lon": 83.9870807,
      "tags": {
        "name": "Manakamana Kitchen and Gift Corner",
        "name:ne": "मनकामना किचन एण्ड गिफ्ट कर्नर",
        "shop": "kitchen"
      }
    },
    {
      "type": "node",
      "id": 4040390743,
      "lat": 28.2636729,
      "lon": 83.9798194,
      "tags": {
        "name": "New Sugam Electronics",
        "name:ne": "न्यु सुगम इलेक्ट्रोनिक्स",
        "shop": "electronics"
      }
    },
    {
      "type": "node",
      "id": 4040393925,
      "lat": 28.2431472,
      "lon": 83.9886322,
      "tags": {
        "name": "Rupa Fancy Store",
        "name:ne": "रूपा फ्यान्सी स्टोर",
        "shop": "clothes"
      }
    },
    {
      "type": "node",
      "id": 4040393992,
      "lat": 28.2381116,
      "lon": 83.9840548,
      "tags": {
        "name": "Bindyashwari puja samagri Bhandar",
        "name:ne": "बिन्द्यासोरी पुजा सामग्री भण्डार",
        "shop": "yes"
      }
    },
    {
      "type": "node",
      "id": 4040398725,
      "lat": 28.2632372,
      "lon": 83.9795916,
      "tags": {
        "name": "Friends Photo Studio",
        "name:ne": "फ्रेन्ड्स फोटो स्टुडियो",
        "shop": "photo"
      }
    },
    {
      "type": "node",
      "id": 4040404411,
      "lat": 28.2426656,
      "lon": 83.98434,
      "tags": {
        "name": "Bindabasini Fresh House",
        "name:ne": "विन्धबासिनी फ्रेश हाउस",
        "shop": "butcher"
      }
    },
    {
      "type": "node",
      "id": 4040410625,
      "lat": 28.2629676,
      "lon": 83.9791319,
      "tags": {
        "name": "Jyotish Kirana Pasal",
        "name:ne": "ज्योतिष किराना पसल",
        "shop": "convenience"
      }
    },
    {
      "type": "node",
      "id": 4040412656,
      "lat": 28.2482738,
      "lon": 83.9864019,
      "tags": {
        "name": "Bishnu Kirana Pasal",
        "name:ne": "बिष्णु किराणा पसल",
        "shop": "convenience"
      }
    },
    {
      "type": "node",
      "id": 4040417960,
      "lat": 28.2585522,
      "lon": 83.9810512,
      "tags": {
        "name": "Samjhana Stationery And Mix Max Center",
        "name:ne": "सम्झना पुस्तकपसल एण्ड मिक्स माक्स सेन्टर",
        "shop": "stationery"
      }
    },
    {
      "type": "node",
      "id": 4040424837,
      "lat": 28.25859,
      "lon": 83.981046,
      "tags": {
        "name": "Chandika Kirana Pasal",
        "name:ne": "चण्डिका किराना पसल",
        "shop": "convenience"
      }
    },
    {
      "type": "node",
      "id": 4040429363,
      "lat": 28.2452342,
      "lon": 83.9889513,
      "tags": {
        "name": "Bissauni Shopping Centere",
        "name:ne": "बिसौनी सपिंग सेन्टर",
        "shop": "supermarket"
      }
    },
    {
      "type": "node",
      "id": 4040435709,
      "lat": 28.2451497,
      "lon": 83.98897,
      "tags": {
        "name": "Gorkha Hair Dresser",
        "name:ne": "गोर्खा हियर द्रेसर",
        "shop": "hairdresser"
      }
    },
    {
      "type": "node",
      "id": 4040450298,
      "lat": 28.2565444,
      "lon": 83.9778982,
      "tags": {
        "name": "Anuska Stationary",
        "name:ne": "अनुस्का पुस्तकपसल",
        "shop": "stationery"
      }
    },
    {
      "type": "node",
      "id": 4040454942,
      "lat": 28.2563808,
      "lon": 83.9775501,
      "tags": {
        "name": "Infomax Stationary",
        "name:ne": "इन्फ़ोम्याक्स पुस्तकालय",
        "shop": "stationery"
      }
    },
    {
      "type": "node",
      "id": 4061442402,
      "lat": 28.2085511,
      "lon": 83.9683668,
      "tags": {
        "name": "Bhandari Electric and Electronics",
        "name:ne": "भन्डारी इलेकट्रिक एन्ड इलेक्ट्रोनिक",
        "shop": "electronics"
      }
    },
    {
      "type": "node",
      "id": 4061442403,
      "lat": 28.2067476,
      "lon": 83.9673208,
      "tags": {
        "name": "new tara fresh house, meat shop",
        "name:ne": "न्यु तारा फ्रेश हाउस मित शप",
        "shop": "butcher"
      }
    },
    {
      "type": "node",
      "id": 4061443482,
      "lat": 28.2090361,
      "lon": 83.9634076,
      "tags": {
        "name": "T short Pasal",
        "name:ne": "ट - शर्ट पसल",
        "shop": "clothes"
      }
    },
    {
      "type": "node",
      "id": 4061457861,
      "lat": 28.207036,
      "lon": 83.9682944,
      "tags": {
        "name": "Sonam's Bakery",
        "name:ne": "सोनामको बेकरी",
        "shop": "bakery"
      }
    },
    {
      "type": "node",
      "id": 4061466541,
      "lat": 28.2067991,
      "lon": 83.965325,
      "tags": {
        "name": "Fruit and Vegetable Shop",
        "name:ne": "फलफुल तथा तरकारी पसल",
        "shop": "greengrocer"
      }
    },
    {
      "type": "node",
      "id": 4061466544,
      "lat": 28.2081872,
      "lon": 83.9661692,
      "tags": {
        "name": "kamala fresh house",
        "name:ne": "कमला फ्रेष हाउस",
        "shop": "butcher"
      }
    },
    {
      "type": "node",
      "id": 4061475583,
      "lat": 28.2110399,
      "lon": 83.9665876,
      "tags": {
        "name": "Bhandari Gas Distibuter",
        "name:ne": "भण्डारी ग्यास वितरक",
        "shop": "convenience"
      }
    },
    {
      "type": "node",
      "id": 4061484187,
      "lat": 28.2094045,
      "lon": 83.9663315,
      "tags": {
        "name": "baidam kirana Store",
        "name:ne": "बैदाम किराना स्टोर",
        "shop": "convenience"
      }
    },
    {
      "type": "node",
      "id": 4061484188,
      "lat": 28.2098548,
      "lon": 83.9664495,
      "tags": {
        "name": "basant kirana store",
        "name:ne": "बसन्त किराना स्टोर",
        "shop": "confectionery"
      }
    },
    {
      "type": "node",
      "id": 4061844960,
      "lat": 28.207135,
      "lon": 83.9662826,
      "tags": {
        "name": "All in one photo studio",
        "name:ne": "अल इन वान स्टुडियो",
        "shop": "photo"
      }
    },
    {
      "type": "node",
      "id": 4061844961,
      "lat": 28.206633,
      "lon": 83.9652023,
      "tags": {
        "name": "Barahi Music Shop",
        "name:ne": "बाराही संगीत पसल",
        "shop": "musical_instrument"
      }
    },
    {
      "type": "node",
      "id": 4061844974,
      "lat": 28.2069048,
      "lon": 83.9669343,
      "tags": {
        "name": "Laundary",
        "name:ne": "लौन्द्री",
        "shop": "laundry"
      }
    },
    {
      "type": "node",
      "id": 4061845189,
      "lat": 28.2068625,
      "lon": 83.9670477,
      "tags": {
        "access": "arogya spa",
        "shop": "beauty"
      }
    },
    {
      "type": "node",
      "id": 4062775506,
      "lat": 28.2071612,
      "lon": 83.966023,
      "tags": {
        "name": "Krishna Store",
        "name:ne": "कृष्ण स्टोर",
        "shop": "convenience"
      }
    },
    {
      "type": "node",
      "id": 4062775508,
      "lat": 28.2071526,
      "lon": 83.9660564,
      "tags": {
        "name": "Vegetable Shop",
        "name:ne": "तरकारी पसल",
        "shop": "greengrocer"
      }
    },
    {
      "type": "node",
      "id": 4062776077,
      "lat": 28.2071935,
      "lon": 83.9657989,
      "tags": {
        "name": "Dhakal Store",
        "name:ne": "ढकाल स्टुडियो",
        "shop": "convenience"
      }
    },
    {
      "type": "node",
      "id": 4062776078,
      "lat": 28.2073067,
      "lon": 83.965825,
      "tags": {
        "name": "Jay Nepal Motorcycle Workshop",
        "name:ne": "जय नेपाल मोटर साईकल वोर्कशप",
        "shop": "car_repair"
      }
    },
    {
      "type": "node",
      "id": 4062779383,
      "lat": 28.2070563,
      "lon": 83.9664769,
      "tags": {
        "name": "Nasa Suppliers (Mineral Water)",
        "name:ne": "नासा सप्प्लायज्",
        "shop": "water"
      }
    },
    {
      "type": "node",
      "id": 4062807982,
      "lat": 28.2109436,
      "lon": 83.9806952,
      "tags": {
        "addr:city": "Pokhara",
        "addr:housenumber": "8",
        "addr:street": "Srijana chowk",
        "name": "Basbari Chhala Jutta Udhyog",
        "name:ne": "बासबरी छाला जुत्ता उध्योग",
        "opening_hours": "08:00-20:00",
        "shop": "shoes"
      }
    },
    {
      "type": "node",
      "id": 4062832805,
      "lat": 28.2088717,
      "lon": 83.9634135,
      "tags": {
        "name": "Muna Kirana Pasal",
        "name:ne": "मुना किराना पसल",
        "shop": "convenience"
      }
    },
    {
      "type": "node",
      "id": 4062839374,
      "lat": 28.2211479,
      "lon": 83.9869825,
      "tags": {
        "addr:street": "New Road",
        "name": "Neha Collection",
        "name:ne": "नेहा कलेक्सन सप",
        "shop": "clothes"
      }
    },
    {
      "type": "node",
      "id": 4063116674,
      "lat": 28.2114724,
      "lon": 83.981815,
      "tags": {
        "name": "Dhakal Cosmetics",
        "name:ne": "ढकाल कस्मेटिक",
        "shop": "cosmetics"
      }
    },
    {
      "type": "node",
      "id": 4063118437,
      "lat": 28.212484,
      "lon": 83.9814857,
      "tags": {
        "name": "Joshi Rice MIll",
        "name:ne": "जोशी राइस् मिल",
        "shop": "yes"
      }
    },
    {
      "type": "node",
      "id": 4063118438,
      "lat": 28.2130087,
      "lon": 83.9807346,
      "tags": {
        "name": "Luv Kushi Dairy",
        "name:ne": "लभ कूशी देरी",
        "shop": "dairy"
      }
    },
    {
      "type": "node",
      "id": 4063122445,
      "lat": 28.2114883,
      "lon": 83.98177,
      "tags": {
        "name": "Gita Cosmetics",
        "name:ne": "गीता कस्मेटिक",
        "shop": "cosmetics"
      }
    },
    {
      "type": "node",
      "id": 4063123849,
      "lat": 28.2111699,
      "lon": 83.9824888,
      "tags": {
        "name": "Tip Top Shoe Shop",
        "name:ne": "टिप् तप शु शप",
        "shop": "shoes"
      }
    },
    {
      "type": "node",
      "id": 4063124806,
      "lat": 28.2114278,
      "lon": 83.9810628,
      "tags": {
        "name": "Mitra Electronics",
        "shop": "electronics"
      }
    },
    {
      "type": "node",
      "id": 4063161207,
      "lat": 28.2108284,
      "lon": 83.9824535,
      "tags": {
        "name": "Asmita Stationery Stores",
        "name:ne": "अस्मिता स्तेसनरी स्टोसृ",
        "shop": "stationery"
      }
    },
    {
      "type": "node",
      "id": 4063167912,
      "lat": 28.2109953,
      "lon": 83.9821008,
      "tags": {
        "name": "Fish and Meat Fresh House",
        "shop": "seafood"
      }
    },
    {
      "type": "node",
      "id": 4063195771,
      "lat": 28.2102481,
      "lon": 83.9846317,
      "tags": {
        "name": "Samachar Kendra",
        "shop": "stationery"
      }
    },
    {
      "type": "node",
      "id": 4066127985,
      "lat": 28.2131354,
      "lon": 83.9575217,
      "tags": {
        "addr:street": "17th Street,Lalupate Mharg",
        "contact:facebook": "https://www.facebook.com/flyingmunkynepal/",
        "name": "Flying Munky Airventures",
        "name:ne": "मन्न्की हावा उद्यम",
        "phone": "+977 061464488",
        "shop": "travel_agency",
        "website": "https://flyingmunkynepal.com"
      }
    },
    {
      "type": "node",
      "id": 4068343414,
      "lat": 28.2117619,
      "lon": 83.981109,
      "tags": {
        "name": "Sleek Kitchen Concepts",
        "name:ne": "स्लीक किचेन कन्सेप्ट",
        "shop": "kitchen"
      }
    },
    {
      "type": "node",
      "id": 4068343417,
      "lat": 28.2115444,
      "lon": 83.9808596,
      "tags": {
        "shop": "hairdresser"
      }
    },
    {
      "type": "node",
      "id": 4068343418,
      "lat": 28.212634,
      "lon": 83.9815194,
      "tags": {
        "name": "Bombay Hair Cutting",
        "name:ne": "बोम्बे हियर कटिङ",
        "shop": "hairdresser"
      }
    },
    {
      "type": "node",
      "id": 4069455650,
      "lat": 28.2090454,
      "lon": 83.9664399,
      "tags": {
        "name": "Swekcha Beauty Parlour",
        "name:ne": "स्वोक्छया विउटी पार्लोर",
        "shop": "beauty"
      }
    },
    {
      "type": "node",
      "id": 4076231658,
      "lat": 28.2210012,
      "lon": 83.987361,
      "tags": {
        "addr:city": "Pokhara",
        "addr:street": "New Road",
        "name": "Music Mantra",
        "name:ne": "मिउजीक मंत्र",
        "shop": "music"
      }
    },
    {
      "type": "node",
      "id": 4076240134,
      "lat": 28.221046,
      "lon": 83.9869445,
      "tags": {
        "addr:city": "Pokhara",
        "addr:street": "New Road",
        "name": "Saujanya Collection",
        "name:ne": "सौजन्य कलेक्सन सप",
        "shop": "clothes"
      }
    },
    {
      "type": "node",
      "id": 4076265196,
      "lat": 28.2237308,
      "lon": 83.9880735,
      "tags": {
        "name": "IT Choice",
        "name:ne": "आइ टी च्वाईस",
        "operator": "Kiran Dhakal",
        "phone": "06-1534536",
        "shop": "mobile_phone"
      }
    },
    {
      "type": "node",
      "id": 4097156731,
      "lat": 28.2160016,
      "lon": 83.9851843,
      "tags": {
        "description": "Exclusive Shirting and Suiting Showroom.",
        "name": "Young Style",
        "name:ne": "योङ्ग ईस्टाल",
        "operator": "Deepak Pariyar",
        "phone": "9804146873",
        "shop": "clothes"
      }
    },
    {
      "type": "node",
      "id": 4102465490,
      "lat": 28.2088037,
      "lon": 83.985169,
      "tags": {
        "addr:housenumber": "Shrestha Mini Market",
        "addr:street": "Siddhartha Rajmarg",
        "email": "tripathi.amit65@yahoo.com",
        "internet_access": "wlan",
        "name": "City Mobile Clinic",
        "name:ne": "सिटी मोबाइल क्लिनिक",
        "opening_hours": "Mo-Su 07:00-20:00",
        "phone": "9856034265",
        "shop": "electronics"
      }
    },
    {
      "type": "node",
      "id": 4109373893,
      "lat": 28.2102826,
      "lon": 83.9836051,
      "tags": {
        "addr:city": "Pokhara",
        "addr:postcode": "33700",
        "addr:street": "Sabhagriha Chowk",
        "name": "Next Shopping Center",
        "name:ne": "नेकस्ट सपीङ सेन्टर",
        "opening_hours": "08:00 to 20:00",
        "phone": "061531182",
        "retail": "retail",
        "shop": "supermarket"
      }
    },
    {
      "type": "node",
      "id": 4115980390,
      "lat": 28.241807,
      "lon": 83.9870483,
      "tags": {
        "addr:street": "Simpani Marg",
        "name": "Jay Mahadev Hardware",
        "name:en": "Niraj Sanitary Store",
        "name:ne": "जय महादेव हार्डवेर",
        "shop": "hardware"
      }
    },
    {
      "type": "node",
      "id": 4115982991,
      "lat": 28.2242694,
      "lon": 83.9883942,
      "tags": {
        "addr:city": "Pokhara",
        "addr:postcode": "33700",
        "addr:street": "Panthi Galli",
        "name": "AP Fashion Wear",
        "name:ne": "ए पी फेसन वेअर",
        "opening_hours": "Mo-Su 10:00-19:15",
        "phone": "+9779846151597",
        "shop": "clothes"
      }
    },
    {
      "type": "node",
      "id": 4144085591,
      "lat": 28.2089501,
      "lon": 83.9986409,
      "tags": {
        "name": "City Cold Store",
        "name:ne": "सिटी कोल्ड स्टोर",
        "shop": "convenience"
      }
    },
    {
      "type": "node",
      "id": 4155275689,
      "lat": 28.217701,
      "lon": 83.9858129,
      "tags": {
        "contact:phone": "061551428",
        "name": "Ink House",
        "name:ne": "इंक हाउस",
        "phone": "061551428",
        "shop": "computer"
      }
    },
    {
      "type": "node",
      "id": 4158742310,
      "lat": 28.2335058,
      "lon": 83.9903084,
      "tags": {
        "addr:city": "Pokhara",
        "addr:street": "gyan marga,nadipur",
        "name": "P & K Kirana Pasal",
        "shop": "convenience",
        "source": "2c pokhara"
      }
    },
    {
      "type": "node",
      "id": 4158742311,
      "lat": 28.2332695,
      "lon": 83.9904411,
      "tags": {
        "addr:city": "Pokhara",
        "addr:street": "gyan marga,nadipur",
        "name": "Bigul Stationary",
        "name:ne": "किताब पसल",
        "shop": "books"
      }
    },
    {
      "type": "node",
      "id": 4159678700,
      "lat": 28.2144617,
      "lon": 83.9855597,
      "tags": {
        "name": "Wine King, Liquour Shop",
        "shop": "beverages"
      }
    },
    {
      "type": "node",
      "id": 4160825709,
      "lat": 28.2392994,
      "lon": 83.9890425,
      "tags": {
        "name": "Adarsha Offset",
        "name:ne": "आर्दष अफसेट",
        "shop": "stationery"
      }
    },
    {
      "type": "node",
      "id": 4160825710,
      "lat": 28.2392215,
      "lon": 83.9870871,
      "tags": {
        "name": "Adhikar Gharayesi Dokan",
        "name:ne": "अधिकार घराएसी दोकान",
        "shop": "electronics"
      }
    },
    {
      "type": "node",
      "id": 4160825711,
      "lat": 28.2393207,
      "lon": 83.9885637,
      "tags": {
        "name": "Ananta Offset Press",
        "name:ne": "अनन्त अफसेट प्रेस",
        "phone": "9846382811",
        "shop": "stationery"
      }
    },
    {
      "type": "node",
      "id": 4160825720,
      "lat": 28.2375756,
      "lon": 83.9855703,
      "tags": {
        "name": "Bindabasini Mobile Service",
        "name:ne": "बिन्दबासिनी मोवाइल सेवा",
        "shop": "mobile_phone"
      }
    },
    {
      "type": "node",
      "id": 4160825727,
      "lat": 28.239905,
      "lon": 83.98724,
      "tags": {
        "name": "Cloth Shop",
        "name:ne": "लुगा पसल",
        "shop": "clothes"
      }
    },
    {
      "type": "node",
      "id": 4160825735,
      "lat": 28.2393863,
      "lon": 83.9884953,
      "tags": {
        "name": "Gaurav Glass Hardware",
        "name:ne": "गौरव ग्लास हार्डवेर",
        "shop": "hardware"
      }
    },
    {
      "type": "node",
      "id": 4160825736,
      "lat": 28.238776,
      "lon": 83.9891417,
      "tags": {
        "name": "Godawari Stationary",
        "name:ne": "गोदावारी पुस्तक पसल",
        "shop": "books"
      }
    },
    {
      "type": "node",
      "id": 4160825740,
      "lat": 28.2388482,
      "lon": 83.9888939,
      "tags": {
        "brand": "wholesale",
        "name": "Jaya Janasewa",
        "name:ne": "जय जनसेवा",
        "shop": "books"
      }
    },
    {
      "type": "node",
      "id": 4160825741,
      "lat": 28.2421562,
      "lon": 83.9887286,
      "tags": {
        "name": "Jayadeurali Hardware",
        "name:ne": "जय देउराली हार्डवोयेर",
        "shop": "hardware"
      }
    },
    {
      "type": "node",
      "id": 4160825742,
      "lat": 28.2387146,
      "lon": 83.9862181,
      "tags": {
        "name": "Jessica Parvat Jewellery",
        "name:ne": "जेसिका पर्वत ज्वेलरी",
        "shop": "jewelry"
      }
    },
    {
      "type": "node",
      "id": 4160825743,
      "lat": 28.2394662,
      "lon": 83.9873876,
      "tags": {
        "name": "Jhilinga(nepali food) Shop",
        "name:ne": "झिलिंगा (नेपाली खाना) पसल",
        "shop": "medical_supply"
      }
    },
    {
      "type": "node",
      "id": 4160825744,
      "lat": 28.2396609,
      "lon": 83.987456,
      "tags": {
        "amenity": "pharmacy",
        "name": "Kafle Medical",
        "name:ne": "काफ्ले मेडिकल",
        "shop": "medical_supply"
      }
    },
    {
      "type": "node",
      "id": 4160825747,
      "lat": 28.2389156,
      "lon": 83.9888709,
      "tags": {
        "name": "Kamana Girls Beauty Parlour",
        "name:ne": "कामना गर्ल्स बिउटी पार्लर",
        "shop": "hairdresser"
      }
    },
    {
      "type": "node",
      "id": 4160825749,
      "lat": 28.2424705,
      "lon": 83.9881091,
      "tags": {
        "name": "Koirala Glass House",
        "name:ne": "कोइराला ग्लास हाउस",
        "shop": "hardware"
      }
    },
    {
      "type": "node",
      "id": 4160825752,
      "lat": 28.238275,
      "lon": 83.9858277,
      "tags": {
        "name": "Krishna Dry Cleaners",
        "name:ne": "क्रिष्ण ड्राई क्लिनर्ज",
        "shop": "dry_cleaning"
      }
    },
    {
      "type": "node",
      "id": 4160825754,
      "lat": 28.242975,
      "lon": 83.9887407,
      "tags": {
        "name": "namuna krishi shop for plants",
        "name:ne": "नमुना क्रिसी पसल",
        "shop": "department_store"
      }
    },
    {
      "type": "node",
      "id": 4160825911,
      "lat": 28.2422206,
      "lon": 83.9878768,
      "tags": {
        "name": "pragati silai talim kendra",
        "name:ne": "प्रगति तालिम केन्द्र",
        "shop": "tailor"
      }
    },
    {
      "type": "node",
      "id": 4160825915,
      "lat": 28.2389362,
      "lon": 83.9865018,
      "tags": {
        "name": "Puja Samagri",
        "name:ne": "पुजा सामाग्री",
        "shop": "department_store"
      }
    },
    {
      "type": "node",
      "id": 4160825918,
      "lat": 28.2385877,
      "lon": 83.9889648,
      "tags": {
        "name": "Rechargeable Led Bulbs",
        "name:ne": "रिचार्जेबल लिड बल्ब",
        "phone": "9816680368",
        "shop": "electronics"
      }
    },
    {
      "type": "node",
      "id": 4160825919,
      "lat": 28.2388528,
      "lon": 83.9865856,
      "tags": {
        "name": "Regmi Furniture",
        "name:ne": "रेग्मी फर्निचर",
        "shop": "furniture"
      }
    },
    {
      "type": "node",
      "id": 4160825920,
      "lat": 28.2399835,
      "lon": 83.9879602,
      "tags": {
        "name": "Roshani Tailors",
        "name:ne": "रोशनी टेलर",
        "shop": "tailor"
      }
    },
    {
      "type": "node",
      "id": 4160825921,
      "lat": 28.2391824,
      "lon": 83.9870308,
      "tags": {
        "name": "Shankar Electrical",
        "name:ne": "शंकर इलेक्ट्रिकल",
        "shop": "electronics"
      }
    },
    {
      "type": "node",
      "id": 4160825924,
      "lat": 28.2378461,
      "lon": 83.9891178,
      "tags": {
        "name": "shop",
        "name:ne": "पसल",
        "shop": "newsagent"
      }
    },
    {
      "type": "node",
      "id": 4160825925,
      "lat": 28.2417155,
      "lon": 83.9866687,
      "tags": {
        "name": "MT Cyber",
        "operator": "Rajan Baral",
        "shop": "department_store"
      }
    },
    {
      "type": "node",
      "id": 4160825926,
      "lat": 28.2418396,
      "lon": 83.9868055,
      "tags": {
        "name:ne": "पसल",
        "shop": "department_store"
      }
    },
    {
      "type": "node",
      "id": 4160825927,
      "lat": 28.2420841,
      "lon": 83.9871394,
      "tags": {
        "name": "shopping center",
        "name:ne": "सपिङ सेन्टर",
        "shop": "department_store"
      }
    },
    {
      "type": "node",
      "id": 4160825928,
      "lat": 28.2376075,
      "lon": 83.9894287,
      "tags": {
        "name": "Siva Parvat Tent House",
        "name:ne": "शिभ पर्भात टेन्ट हाउस",
        "shop": "newsagent"
      }
    },
    {
      "type": "node",
      "id": 4160825929,
      "lat": 28.2390737,
      "lon": 83.9868551,
      "tags": {
        "name": "smriti gift shop",
        "name:ne": "ईस्म्रीती गिफ्ट शप",
        "shop": "gift"
      }
    },
    {
      "type": "node",
      "id": 4160825932,
      "lat": 28.2361424,
      "lon": 83.9897841,
      "tags": {
        "name": "suman kirana stores",
        "name:ne": "सुमन किराना पसल",
        "shop": "convenience"
      }
    },
    {
      "type": "node",
      "id": 4160825936,
      "lat": 28.2397637,
      "lon": 83.9873205,
      "tags": {
        "name": "Utensils Shop",
        "name:ne": "युटेनसिल सप",
        "shop": "convenience"
      }
    },
    {
      "type": "node",
      "id": 4160825937,
      "lat": 28.2399516,
      "lon": 83.9879549,
      "tags": {
        "name": "Uttam Hair Cutter",
        "name:ne": "उत्तम हियर कटर",
        "shop": "hairdresser"
      }
    },
    {
      "type": "node",
      "id": 4160825938,
      "lat": 28.2392321,
      "lon": 83.9890626,
      "tags": {
        "name": "Vidtharthy Pustak Pasal",
        "name:ne": "विद्यार्थी पुस्तक पसल",
        "shop": "books"
      }
    },
    {
      "type": "node",
      "id": 4167742384,
      "lat": 28.2569413,
      "lon": 83.9776597,
      "tags": {
        "name": "Lamachaur Stationery",
        "name:ne": "लामाचौर पुस्तकपसल",
        "shop": "stationery"
      }
    },
    {
      "type": "node",
      "id": 4169748900,
      "lat": 28.2087207,
      "lon": 83.9944904,
      "tags": {
        "name": "Hira Salon",
        "name:ne": "हिरा सलोन",
        "shop": "hairdresser"
      }
    },
    {
      "type": "node",
      "id": 4172661106,
      "lat": 28.2408682,
      "lon": 83.9868996,
      "tags": {
        "addr:city": "Pokhara",
        "addr:street": "Bagh Bazaar",
        "name": "Gautam Kirana Stores",
        "name:ne": "गौतम किराना स्टोर",
        "operator": "narayan gautam",
        "shop": "convenience"
      }
    },
    {
      "type": "node",
      "id": 4172777593,
      "lat": 28.2064498,
      "lon": 83.9946927,
      "tags": {
        "name": "Gyan Darpan Books and stationary",
        "name:ne": "ज्ञान दर्पण पुस्तक पसल",
        "shop": "stationery"
      }
    },
    {
      "type": "node",
      "id": 4172777598,
      "lat": 28.2065438,
      "lon": 83.9946523,
      "tags": {
        "name": "Manisha Alisha Cosmetics",
        "name:ne": "मानिषा एलिसा कष्मेटिकस्",
        "shop": "beauty"
      }
    },
    {
      "type": "node",
      "id": 4172777599,
      "lat": 28.2064219,
      "lon": 83.9947119,
      "tags": {
        "name": "My Computer Solutions",
        "name:ne": "माई कम्प्युटर सोलुसन",
        "shop": "computer"
      }
    },
    {
      "type": "node",
      "id": 4172777625,
      "lat": 28.2065203,
      "lon": 83.9946623,
      "tags": {
        "name": "Syangja Kirana Pasal",
        "name:ne": "स्याङ्जा किराना पसल",
        "shop": "convenience"
      }
    },
    {
      "type": "node",
      "id": 4172950275,
      "lat": 28.2112725,
      "lon": 83.9821707,
      "tags": {
        "name": "Himshikhar Enterprises",
        "name:ne": "हिमशिखर इन्टरप्राइजेज्",
        "shop": "convenience"
      }
    },
    {
      "type": "node",
      "id": 4175825699,
      "lat": 28.2413641,
      "lon": 83.9864438,
      "tags": {
        "shop": "convenience"
      }
    },
    {
      "type": "node",
      "id": 4175825704,
      "lat": 28.2413796,
      "lon": 83.9864944,
      "tags": {
        "name:ne": "लुगा पसल",
        "shop": "clothes"
      }
    },
    {
      "type": "node",
      "id": 4175825725,
      "lat": 28.2398546,
      "lon": 83.9881701,
      "tags": {
        "name": "Prakash Fancy",
        "name:ne": "प्रकाश फ्यान्सी स्टोर",
        "shop": "clothes"
      }
    },
    {
      "type": "node",
      "id": 4175852052,
      "lat": 28.2174338,
      "lon": 83.9706272,
      "tags": {
        "name": "New Pragati Shopping Centre",
        "shop": "convenience",
        "source": "2c pokhara"
      }
    },
    {
      "type": "node",
      "id": 4176495090,
      "lat": 28.2100551,
      "lon": 83.9851051,
      "tags": {
        "name": "S n S Departmental Stores",
        "name:ne": "एस एंड एस डिपार्टमेन्ट स्टोरे",
        "shop": "convenience"
      }
    },
    {
      "type": "node",
      "id": 4176506841,
      "lat": 28.2098778,
      "lon": 83.9855088,
      "tags": {
        "name": "Sansar Color Lab",
        "name:ne": "संसार कलर ल्याब",
        "shop": "photo"
      }
    },
    {
      "type": "node",
      "id": 4177566366,
      "lat": 28.2241169,
      "lon": 83.9793246,
      "tags": {
        "brand": "Suoer Deluxe",
        "name": "Shuva Adhikari Travels",
        "name:ne": "अधिकारी ट्राभल",
        "opening_hours": "07:00-10:00",
        "shop": "travel_agency"
      }
    },
    {
      "type": "node",
      "id": 4177566367,
      "lat": 28.2238192,
      "lon": 83.9783751,
      "tags": {
        "amenity": "fast_food",
        "name": "K.C. Khaja Ghar",
        "name:ne": "के.सी खाजा घर",
        "opening_hours": "07:00-10:00",
        "shop": "bakery"
      }
    },
    {
      "type": "node",
      "id": 4177643582,
      "lat": 28.22134,
      "lon": 83.9778814,
      "tags": {
        "name": "Yadav Stores",
        "name:ne": "यादव स्टोर",
        "shop": "convenience"
      }
    },
    {
      "type": "node",
      "id": 4177646797,
      "lat": 28.2208354,
      "lon": 83.9776628,
      "tags": {
        "shop": "farm"
      }
    },
    {
      "type": "node",
      "id": 4177646807,
      "lat": 28.2210741,
      "lon": 83.9777715,
      "tags": {
        "shop": "convenience"
      }
    },
    {
      "type": "node",
      "id": 4177646815,
      "lat": 28.2211355,
      "lon": 83.9778023,
      "tags": {
        "shop": "hairdresser"
      }
    },
    {
      "type": "node",
      "id": 4177646819,
      "lat": 28.2211604,
      "lon": 83.9778238,
      "tags": {
        "shop": "greengrocer"
      }
    },
    {
      "type": "node",
      "id": 4177646823,
      "lat": 28.2211887,
      "lon": 83.9778264,
      "tags": {
        "shop": "electronics"
      }
    },
    {
      "type": "node",
      "id": 4177646825,
      "lat": 28.22121,
      "lon": 83.9778331,
      "tags": {
        "shop": "cosmetics"
      }
    },
    {
      "type": "node",
      "id": 4177646830,
      "lat": 28.2212608,
      "lon": 83.977864,
      "tags": {
        "shop": "clothes"
      }
    },
    {
      "type": "node",
      "id": 4177646832,
      "lat": 28.2212892,
      "lon": 83.977872,
      "tags": {
        "shop": "stationery"
      }
    },
    {
      "type": "node",
      "id": 4178127535,
      "lat": 28.2181055,
      "lon": 83.9763715,
      "tags": {
        "name": "Citizens Photo",
        "name:ne": "सिटिजन फोटो",
        "shop": "photo"
      }
    },
    {
      "type": "node",
      "id": 4178127537,
      "lat": 28.2222715,
      "lon": 83.9782367,
      "tags": {
        "name": "New Dang Valley Meat shop",
        "name:ne": "न्यु दाङ्ग भ्यालि मासु पसल",
        "shop": "butcher"
      }
    },
    {
      "type": "node",
      "id": 4178127538,
      "lat": 28.2219198,
      "lon": 83.9780915,
      "tags": {
        "name": "Sowkirti Hardware",
        "name:ne": "शोकृति हार्डवोयेर",
        "shop": "hardware"
      }
    },
    {
      "type": "node",
      "id": 4178127545,
      "lat": 28.2180311,
      "lon": 83.9762897,
      "tags": {
        "shop": "stationery"
      }
    },
    {
      "type": "node",
      "id": 4178127548,
      "lat": 28.2181847,
      "lon": 83.9764507,
      "tags": {
        "shop": "tailor"
      }
    },
    {
      "type": "node",
      "id": 4178127549,
      "lat": 28.2182308,
      "lon": 83.9765083,
      "tags": {
        "shop": "convenience"
      }
    },
    {
      "type": "node",
      "id": 4178127554,
      "lat": 28.2183537,
      "lon": 83.9766206,
      "tags": {
        "shop": "convenience"
      }
    },
    {
      "type": "node",
      "id": 4178127555,
      "lat": 28.2183558,
      "lon": 83.9765878,
      "tags": {
        "shop": "tailor"
      }
    },
    {
      "type": "node",
      "id": 4178131218,
      "lat": 28.2187561,
      "lon": 83.9767994,
      "tags": {
        "shop": "cosmetics"
      }
    },
    {
      "type": "node",
      "id": 4178131221,
      "lat": 28.2187815,
      "lon": 83.9768154,
      "tags": {
        "shop": "electronics"
      }
    },
    {
      "type": "node",
      "id": 4178223107,
      "lat": 28.2401988,
      "lon": 83.988674,
      "tags": {
        "name": "Unique fancy",
        "name:ne": "युनिक फ्यान्सी",
        "shop": "fancy"
      }
    },
    {
      "type": "node",
      "id": 4178472955,
      "lat": 28.2083954,
      "lon": 83.9887052,
      "tags": {
        "name": "Fish Market",
        "name:ne": "माछा बजार",
        "shop": "seafood"
      }
    },
    {
      "type": "node",
      "id": 4178532137,
      "lat": 28.2069674,
      "lon": 83.9910358,
      "tags": {
        "name": "Om Buddha Nursery",
        "name:ne": "ओम बुद्ध नर्सरी",
        "shop": "garden_centre"
      }
    },
    {
      "type": "node",
      "id": 4180053219,
      "lat": 28.2176902,
      "lon": 83.9760846,
      "tags": {
        "shop": "butcher"
      }
    },
    {
      "type": "node",
      "id": 4180053268,
      "lat": 28.2181646,
      "lon": 83.9766596,
      "tags": {
        "repair": "yes",
        "shop": "motorcycle"
      }
    },
    {
      "type": "node",
      "id": 4180305490,
      "lat": 28.2070751,
      "lon": 83.9917585,
      "tags": {
        "brand": "Ford",
        "name": "Ford Showroom",
        "name:ne": "फोर्ड शोरुम",
        "shop": "car"
      }
    },
    {
      "type": "node",
      "id": 4180449259,
      "lat": 28.2175198,
      "lon": 83.9865476,
      "tags": {
        "name": "Panday Computers",
        "name:ne": "पाण्डे कम्पुटर",
        "opening_hours": "sunrise-sunset",
        "shop": "computer"
      }
    },
    {
      "type": "node",
      "id": 4180609143,
      "lat": 28.2214293,
      "lon": 83.9784156,
      "tags": {
        "name": "Kashan Meat suppliers",
        "name:ne": "काषण मिट सप्लार्यस्",
        "shop": "butcher"
      }
    },
    {
      "type": "node",
      "id": 4180614028,
      "lat": 28.2193451,
      "lon": 83.9776047,
      "tags": {
        "repair": "yes",
        "shop": "electronics"
      }
    },
    {
      "type": "node",
      "id": 4180614036,
      "lat": 28.2194243,
      "lon": 83.9776288,
      "tags": {
        "shop": "convenience"
      }
    },
    {
      "type": "node",
      "id": 4180614043,
      "lat": 28.2194845,
      "lon": 83.977657,
      "tags": {
        "repair": "yes",
        "shop": "motorcycle"
      }
    },
    {
      "type": "node",
      "id": 4182745963,
      "lat": 28.22563,
      "lon": 83.9845735,
      "tags": {
        "name:ne": "सुपरमार्केट",
        "shop": "supermarket"
      }
    },
    {
      "type": "node",
      "id": 4182853652,
      "lat": 28.2192896,
      "lon": 83.9910347,
      "tags": {
        "name": "B and D Aqurium",
        "name:ne": "बि. एण्ड डि अक्वारियम",
        "shop": "pet"
      }
    },
    {
      "type": "node",
      "id": 4182853654,
      "lat": 28.2193959,
      "lon": 83.991087,
      "tags": {
        "dispensing": "no",
        "name": "RK medicine Distributers P. Ltd",
        "name:ne": "आर के मेडिसिन प्रा. लि.",
        "shop": "medical_supply"
      }
    },
    {
      "type": "node",
      "id": 4182853655,
      "lat": 28.2193569,
      "lon": 83.9910615,
      "tags": {
        "name": "Salina Medal Concern",
        "name:ne": "सलिना मेडल क्नश्रण",
        "shop": "stationery"
      }
    },
    {
      "type": "node",
      "id": 4182889437,
      "lat": 28.2196347,
      "lon": 83.9911833,
      "tags": {
        "addr:city": "Pokhara",
        "addr:housenumber": "211",
        "addr:street": "Naya Bazar",
        "name": "Valley Book Centre",
        "name:ne": "भ्यालि किताब सेन्टर",
        "shop": "books"
      }
    },
    {
      "type": "node",
      "id": 4182889438,
      "lat": 28.2196548,
      "lon": 83.9911933,
      "tags": {
        "addr:city": "Pokhara",
        "addr:housenumber": "211",
        "addr:street": "Naya Bazar",
        "name": "Puppy Patch",
        "name:ne": "पाप्पी प्याच",
        "shop": "pet"
      }
    },
    {
      "type": "node",
      "id": 4182894377,
      "lat": 28.2199122,
      "lon": 83.9910431,
      "tags": {
        "name": "Raja Automobiles",
        "name:ne": "राजा अटो-मोबाईलस्",
        "shop": "car_parts"
      }
    },
    {
      "type": "node",
      "id": 4182894380,
      "lat": 28.2199028,
      "lon": 83.9910337,
      "tags": {
        "name": "The Raymond shop",
        "name:ne": "रेमोण्ड शप",
        "shop": "fabric"
      }
    },
    {
      "type": "node",
      "id": 4182916258,
      "lat": 28.2188824,
      "lon": 83.990863,
      "tags": {
        "addr:city": "Pokhara",
        "addr:street": "Naya Bazar",
        "name": "Yamaha Motorcycle",
        "name:ne": "यामाहा मोटोर साईकल",
        "shop": "motorcycle"
      }
    },
    {
      "type": "node",
      "id": 4182975966,
      "lat": 28.2244689,
      "lon": 83.9844097,
      "tags": {
        "name": "Fishtail Meat Shop",
        "name:ne": "फिस्टेल मासु पसल",
        "shop": "butcher"
      }
    },
    {
      "type": "node",
      "id": 4182977554,
      "lat": 28.2245522,
      "lon": 83.9842149,
      "tags": {
        "repair": "yes",
        "shop": "motorcycle"
      }
    },
    {
      "type": "node",
      "id": 4182981245,
      "lat": 28.2188142,
      "lon": 83.9905158,
      "tags": {
        "name": "Trithunga Trading Ceoncern Pvt. Ltd.",
        "name:ne": "त्रिथुन्गा ट्रेडिङ कन्सर्न प्रा .लि .",
        "shop": "tyres"
      }
    },
    {
      "type": "node",
      "id": 4183005738,
      "lat": 28.2184121,
      "lon": 83.990588,
      "tags": {
        "addr:city": "Pokhara",
        "addr:housenumber": "183",
        "addr:street": "Naya Bazar",
        "name": "NGH Hero Motorcycles",
        "name:ne": "एन.जी.एच हिरो मोटरसाइकल",
        "shop": "motorcycle"
      }
    },
    {
      "type": "node",
      "id": 4183005745,
      "lat": 28.2183447,
      "lon": 83.990538,
      "tags": {
        "addr:city": "Pokhara",
        "addr:street": "Naya Bazar",
        "name": "Flex Prints",
        "name:ne": "फलेक्स प्रिन्ट",
        "shop": "copyshop"
      }
    },
    {
      "type": "node",
      "id": 4183005746,
      "lat": 28.2183002,
      "lon": 83.9905154,
      "tags": {
        "addr:city": "Pokhara",
        "addr:street": "Naya Bazar",
        "name": "The Car Decor",
        "name:ne": "कार डेकोर",
        "shop": "car_parts"
      }
    },
    {
      "type": "node",
      "id": 4183005751,
      "lat": 28.2182542,
      "lon": 83.9904952,
      "tags": {
        "addr:city": "Pokhara",
        "addr:street": "Naya Bazar",
        "name": "Sandesh Tattoo Ink",
        "name:ne": "संदेश ट्याटु इंक",
        "shop": "tattoo"
      }
    },
    {
      "type": "node",
      "id": 4183005752,
      "lat": 28.2182145,
      "lon": 83.990475,
      "tags": {
        "addr:city": "Pokhara",
        "addr:street": "Naya Bazar",
        "name": "Dinesh Haircutting",
        "name:ne": "दिनेश हीअरकटिंग",
        "shop": "hairdresser"
      }
    },
    {
      "type": "node",
      "id": 4183005761,
      "lat": 28.2179763,
      "lon": 83.9904484,
      "tags": {
        "addr:city": "Pokhara",
        "addr:street": "Naya Bazar",
        "name": "Classic Motorcycle Workshop",
        "name:ne": "क्लासिक मोटरसाइकल बनाउने ठाउँ",
        "shop": "motorcycle"
      }
    },
    {
      "type": "node",
      "id": 4183634048,
      "lat": 28.2213325,
      "lon": 83.983967,
      "tags": {
        "shop": "convenience"
      }
    },
    {
      "type": "node",
      "id": 4185487988,
      "lat": 28.2346244,
      "lon": 83.9828294,
      "tags": {
        "name": "Avatar Cold Stores",
        "name:en": "syangja cold store",
        "shop": "alcohol"
      }
    },
    {
      "type": "node",
      "id": 4185488252,
      "lat": 28.2350787,
      "lon": 83.9818966,
      "tags": {
        "shop": "butcher"
      }
    },
    {
      "type": "node",
      "id": 4187515605,
      "lat": 28.2376813,
      "lon": 83.9856815,
      "tags": {
        "name": "Bhu Phu Gold Shop",
        "name:ne": "भू.पु. गोल्ड सप",
        "shop": "jewelry"
      }
    },
    {
      "type": "node",
      "id": 4189725968,
      "lat": 28.2241453,
      "lon": 83.9875251,
      "tags": {
        "name": "Cocktail Fashion Store",
        "name:ne": "कक्टेल फ्यासन स्टोरे",
        "shop": "clothes"
      }
    },
    {
      "type": "node",
      "id": 4189725969,
      "lat": 28.2241181,
      "lon": 83.9875788,
      "tags": {
        "name": "Durga Electronics",
        "name:ne": "दुर्गा इलेक्ट्रोनिक्स",
        "repair": "yes",
        "shop": "electronics"
      }
    },
    {
      "type": "node",
      "id": 4189725972,
      "lat": 28.2240282,
      "lon": 83.987486,
      "tags": {
        "name": "Philips",
        "name:ne": "फिलिप्स इलेक्रोट्रोनिक",
        "shop": "electronics"
      }
    },
    {
      "type": "node",
      "id": 4189725973,
      "lat": 28.2240266,
      "lon": 83.9875835,
      "tags": {
        "name": "Siddhartha Jwellary",
        "name:ne": "सिद्धार्थ ज्वेलरी",
        "shop": "jewelry"
      }
    },
    {
      "type": "node",
      "id": 4191190754,
      "lat": 28.2254187,
      "lon": 83.9908008,
      "tags": {
        "name": "Mathura Sahu Ko Pasal",
        "name:ne": "माठुरा साहुको पसल",
        "shop": "clothes"
      }
    },
    {
      "type": "node",
      "id": 4191190756,
      "lat": 28.2131209,
      "lon": 83.9852319,
      "tags": {
        "name": "Umesh Motorcycle Workshop",
        "name:ne": "उमेश मोटर-साइकल वोर्कसप",
        "parts": "yes",
        "rental": "no",
        "repair": "yes",
        "sale": "no",
        "shop": "motorcycle"
      }
    },
    {
      "type": "node",
      "id": 4191244506,
      "lat": 28.2118483,
      "lon": 83.984736,
      "tags": {
        "name": "Bagmati Flower Shop",
        "name:ne": "बागमती फ्लावोर शप",
        "shop": "florist"
      }
    },
    {
      "type": "node",
      "id": 4191244511,
      "lat": 28.2128363,
      "lon": 83.9851772,
      "tags": {
        "name": "Chitwan Meat Suppliers",
        "name:ne": "चितवन मिट सप्लायर्ज",
        "shop": "butcher"
      }
    },
    {
      "type": "node",
      "id": 4191244516,
      "lat": 28.212181,
      "lon": 83.9848701,
      "tags": {
        "name": "Home Sweet Home, Malaysian Carnish and Jypsan Board",
        "name:ne": "होम स्वीट होम मलेसियन कर्निश एंड ज्यापसन बोर्ड",
        "shop": "hardware"
      }
    },
    {
      "type": "node",
      "id": 4191244517,
      "lat": 28.2123134,
      "lon": 83.9849318,
      "tags": {
        "name": "Kanchan Cold Store and Suppliers",
        "name:ne": "कन्चन कोल्ड स्टोर एंड सप्लायर्स",
        "shop": "butcher"
      }
    },
    {
      "type": "node",
      "id": 4191244522,
      "lat": 28.211742,
      "lon": 83.9846717,
      "tags": {
        "name": "RB Motorcycle Workshop",
        "name:ne": "अर बि मोटर सइकल वोर्कसप",
        "parts": "yes",
        "rental": "no",
        "repair": "yes",
        "sale": "no",
        "shop": "motorcycle"
      }
    },
    {
      "type": "node",
      "id": 4191244523,
      "lat": 28.2128845,
      "lon": 83.985188,
      "tags": {
        "name": "Ramesh Motercycle Workshop",
        "name:ne": "रमेश मोटर-साइकल वोर्क-सप",
        "parts": "yes",
        "rental": "no",
        "repair": "yes",
        "sale": "no",
        "shop": "motorcycle"
      }
    },
    {
      "type": "node",
      "id": 4191244526,
      "lat": 28.2130375,
      "lon": 83.9850958,
      "tags": {
        "name": "S and S Stationery",
        "name:ne": "यस् एंड यस् स्टेशनरी",
        "shop": "stationery"
      }
    },
    {
      "type": "node",
      "id": 4191244527,
      "lat": 28.2120983,
      "lon": 83.9848346,
      "tags": {
        "name": "Sanu Cold Store",
        "name:ne": "सानु कोल्ड स्टोर",
        "shop": "convenience"
      }
    },
    {
      "type": "node",
      "id": 4191244529,
      "lat": 28.2130529,
      "lon": 83.9852473,
      "tags": {
        "name": "Shreya Store",
        "shop": "convenience"
      }
    },
    {
      "type": "node",
      "id": 4191244531,
      "lat": 28.2129253,
      "lon": 83.9852047,
      "tags": {
        "name": "Surya Saan Cycle Store",
        "name:ne": "सुर्य सान साइकल स्टोर",
        "service:bicycle:rental": "yes",
        "service:bicycle:repair": "yes",
        "service:bicycle:retail": "yes",
        "service:bicycle:second_hand": "yes",
        "shop": "bicycle"
      }
    },
    {
      "type": "node",
      "id": 4192759892,
      "lat": 28.2132907,
      "lon": 83.9846284,
      "tags": {
        "name": "Royal Traders",
        "name:ne": "रोयल ट्रेडर्स",
        "shop": "hardware"
      }
    },
    {
      "type": "node",
      "id": 4192759894,
      "lat": 28.2132026,
      "lon": 83.9847669,
      "tags": {
        "name": "Usha Beauty Parlour",
        "name:ne": "उषा ब्यूटी पार्लोर",
        "shop": "beauty"
      }
    },
    {
      "type": "node",
      "id": 4193570892,
      "lat": 28.2089487,
      "lon": 83.9652371,
      "tags": {
        "addr:housenumber": "12",
        "addr:street": "Gauri Ghat",
        "email": "bhakti8848@gmail.com",
        "name": "Bhakti Trekking Guide",
        "name:ne": "भक्ति ट्ेकिङ गाइड",
        "opening_hours": "24/7",
        "phone": "+9779846139572",
        "shop": "travel_agency",
        "website": "www.guidenepal.weebly.com"
      }
    },
    {
      "type": "node",
      "id": 4196044895,
      "lat": 28.2090639,
      "lon": 83.9654799,
      "tags": {
        "addr:housenumber": "12",
        "addr:street": "Bagaicha Marg",
        "email": "bhakti8848@gmail.com",
        "name": "Bhakti Trekking guide",
        "name:en": "Big Sky Treks and Expeditions Pvt Ltd",
        "name:ne": "भक्ति ट्ेकिङ गाइड",
        "opening_hours": "24/7",
        "phone": "+9779846139572",
        "shop": "travel_agency",
        "website": "http://www.bigskytreks.com"
      }
    },
    {
      "type": "node",
      "id": 4198927789,
      "lat": 28.2263042,
      "lon": 83.9895939,
      "tags": {
        "name": "Bahudal Hair Cutting Center",
        "name:ne": "बहुदल सैलुन",
        "shop": "hairdresser"
      }
    },
    {
      "type": "node",
      "id": 4198928002,
      "lat": 28.226309,
      "lon": 83.9894678,
      "tags": {
        "shop": "butcher"
      }
    },
    {
      "type": "node",
      "id": 4201538891,
      "lat": 28.2137234,
      "lon": 83.9586535,
      "tags": {
        "addr:street": "Lake side",
        "email": "mail@swissatravel.com.np",
        "name": "Swissa Agency",
        "name:en": "Swissa Agency (Red)",
        "name:ne": "सुइस एजे‍‍‍न‍‍्सी",
        "opening_hours": "Mo-Su 07:00-20:00",
        "phone": "+9779846047176",
        "shop": "travel_agency",
        "website": "http://www.swissatravel.com.np"
      }
    },
    {
      "type": "node",
      "id": 4201682950,
      "lat": 28.2244287,
      "lon": 83.9884366,
      "tags": {
        "addr:city": "Pokhara",
        "addr:postcode": "33700",
        "addr:street": "panthigalli",
        "name": "H&S Fashion Wear",
        "name:ne": "एच एण्ड एस् फेसन वोर",
        "opening_hours": "Su-Fr 10:00-19:00",
        "shop": "clothes"
      }
    },
    {
      "type": "node",
      "id": 4201951990,
      "lat": 28.2085923,
      "lon": 83.9739144,
      "tags": {
        "name": "Safal Kirana Pasal",
        "opening_hours": "sunrise-sunset",
        "shop": "convenience"
      }
    },
    {
      "type": "node",
      "id": 4202046189,
      "lat": 28.2238535,
      "lon": 83.9885664,
      "tags": {
        "name": "Niva",
        "name:ne": "निभा",
        "shop": "clothes"
      }
    },
    {
      "type": "node",
      "id": 4204048589,
      "lat": 28.2211916,
      "lon": 83.9853723,
      "tags": {
        "name": "Kalpana Interprise",
        "name:ne": "कल्पना इन्टरप्राइज",
        "shop": "clothes"
      }
    },
    {
      "type": "node",
      "id": 4204048665,
      "lat": 28.2211792,
      "lon": 83.9854494,
      "tags": {
        "name": "New Prince Hair Saloon",
        "shop": "hairdresser"
      }
    },
    {
      "type": "node",
      "id": 4214949860,
      "lat": 28.2241899,
      "lon": 83.98639,
      "tags": {
        "addr:housenumber": "104",
        "addr:street": "चिप्लेढुंगा",
        "email": "nikita.trader@gmail.com",
        "internet_access": "wlan",
        "name": "Nikita Traders",
        "name:ne": "निकिता ट्रेडर्स",
        "opening_hours": "Su-Fr 09:00-19:00",
        "phone": "+977 61 523183",
        "shop": "electronics",
        "website": "www.nikitatraders.com.np"
      }
    },
    {
      "type": "node",
      "id": 4221034991,
      "lat": 28.2227822,
      "lon": 83.9868454,
      "tags": {
        "addr:postcode": "33700",
        "addr:street": "Buddha Marga",
        "email": "juksoncomputers@gmail.com",
        "internet_access": "wlan",
        "name": "Jukson Computer Service",
        "name:ne": "जुक्सन कम्प्युटर सर्विस",
        "phone": "009779856022409",
        "shop": "computer"
      }
    },
    {
      "type": "node",
      "id": 4225182398,
      "lat": 28.212084,
      "lon": 83.9998415,
      "tags": {
        "note": "Motorcycle",
        "repair": "yes",
        "shop": "car_repair"
      }
    },
    {
      "type": "node",
      "id": 4225209529,
      "lat": 28.2119364,
      "lon": 83.9996503,
      "tags": {
        "name": "Soaltee Fresh House",
        "name:ne": "सोल्टी फ्रेश हाउस",
        "shop": "butcher"
      }
    },
    {
      "type": "node",
      "id": 4225214563,
      "lat": 28.2275497,
      "lon": 83.9988203,
      "tags": {
        "name": "Khanal Store",
        "name:ne": "खनाल स्तोर",
        "opening_hours": "sunrise-sunset",
        "shop": "convenience",
        "wheelchair": "no"
      }
    },
    {
      "type": "node",
      "id": 4225214564,
      "lat": 28.2261743,
      "lon": 83.9988528,
      "tags": {
        "contact:phone": "061-522331",
        "name": "Swornim and Swornimaa Traders",
        "name:ne": "सोर्निम तथा सोर्निमा स्टोर",
        "opening_hours": "sunrise-sunset",
        "shop": "convenience",
        "source": "2cpokhara",
        "wheelchair": "no"
      }
    },
    {
      "type": "node",
      "id": 4237581756,
      "lat": 28.2088721,
      "lon": 83.9877113,
      "tags": {
        "contact:phone": "061-520746",
        "name": "Swoichhya Cold Store",
        "name:ne": "स्वेच्छा कोल्ड स्टोस्",
        "opening_hours": "sunrise-sunset",
        "shop": "supermarket",
        "wheelchair": "yes"
      }
    },
    {
      "type": "node",
      "id": 4240815757,
      "lat": 28.2099052,
      "lon": 83.9947317,
      "tags": {
        "name": "Asmita Beauty Parlour",
        "name:ne": "अस्मिता ब्यूटी पार्लर",
        "shop": "beauty"
      }
    },
    {
      "type": "node",
      "id": 4240815758,
      "lat": 28.2097985,
      "lon": 83.9946708,
      "tags": {
        "name": "Swopnil Kirana Pasal",
        "name:ne": "सोप्निल किराना पसल",
        "opening_hours": "sunrise-sunset",
        "shop": "convenience",
        "wheelchair": "no"
      }
    },
    {
      "type": "node",
      "id": 4240852655,
      "lat": 28.2090891,
      "lon": 83.9945345,
      "tags": {
        "drive_through": "no",
        "shop": "alcohol"
      }
    },
    {
      "type": "node",
      "id": 4240903779,
      "lat": 28.2089736,
      "lon": 83.998786,
      "tags": {
        "name": "Baral Shopping & Fresh House",
        "name:ne": "बराल सपिङ्ग एण्ड फ्रेश हाउस",
        "opening_hours": "sunrise-sunset",
        "shop": "butcher",
        "wheelchair": "no"
      }
    },
    {
      "type": "node",
      "id": 4242355276,
      "lat": 28.2109496,
      "lon": 83.9969046,
      "tags": {
        "name": "K.D. Kirana Pasal",
        "name:ne": "के डी किराना पसल",
        "shop": "convenience"
      }
    },
    {
      "type": "node",
      "id": 4242360799,
      "lat": 28.2116169,
      "lon": 83.9952927,
      "tags": {
        "name": "Babu Kirana Pasal",
        "name:ne": "बाबु किराना पसल",
        "shop": "convenience"
      }
    },
    {
      "type": "node",
      "id": 4242491245,
      "lat": 28.2113725,
      "lon": 83.9961453,
      "tags": {
        "name": "Gita Mandir Pujha Samagri Bhandar",
        "name:ne": "गीता मन्दिर पुजा सामग्री भण्डार",
        "shop": "religion"
      }
    },
    {
      "type": "node",
      "id": 4242491246,
      "lat": 28.2113695,
      "lon": 83.996187,
      "tags": {
        "name": "Kirateswor Kasthakala",
        "name:ne": "किरातेश्वोर कस्टकला",
        "shop": "furniture"
      }
    },
    {
      "type": "node",
      "id": 4243770494,
      "lat": 28.2101117,
      "lon": 83.9973469,
      "tags": {
        "name": "Gautam Kirana Pasal",
        "name:ne": "गौतम किराना पसल",
        "shop": "convenience"
      }
    },
    {
      "type": "node",
      "id": 4243822846,
      "lat": 28.2089524,
      "lon": 83.998695,
      "tags": {
        "name": "Yumi Stationery",
        "name:ne": "युमी स्टेस्नरी",
        "shop": "stationery"
      }
    },
    {
      "type": "node",
      "id": 4243920392,
      "lat": 28.2089516,
      "lon": 84.0001036,
      "tags": {
        "name": "Anjali Kairana pasal",
        "name:ne": "आन्जली किराना पसल",
        "shop": "convenience"
      }
    },
    {
      "type": "node",
      "id": 4243920393,
      "lat": 28.2091569,
      "lon": 83.9996104,
      "tags": {
        "name": "Daju Bhai Kirana Pasal",
        "name:ne": "दाजु भाई किराना पसल",
        "shop": "convenience"
      }
    },
    {
      "type": "node",
      "id": 4243920394,
      "lat": 28.2090851,
      "lon": 84.0002144,
      "tags": {
        "name": "Pokhara Beauty Parlour",
        "name:ne": "पोखरा ब्युटी पार्लर",
        "shop": "beauty"
      }
    },
    {
      "type": "node",
      "id": 4243920395,
      "lat": 28.2090732,
      "lon": 84.0003954,
      "tags": {
        "name": "Priya Kirana Pasal",
        "name:ne": "प्रिय मार्ग",
        "shop": "convenience"
      }
    },
    {
      "type": "node",
      "id": 4244054613,
      "lat": 28.211233,
      "lon": 83.9998332,
      "tags": {
        "name": "Bhakari Perfect Video Solutions",
        "name:ne": "भकारी पर्फेट भिडियो सोलुसन",
        "shop": "photo"
      }
    },
    {
      "type": "node",
      "id": 4245979602,
      "lat": 28.2229312,
      "lon": 83.9912561,
      "tags": {
        "addr:street": "Mahendrapool",
        "name": "Pokhara Optical Centre",
        "name:ne": "पोखरा अप्टिकल सेन्टर",
        "opening_hours": "Su-Fr 10:00-22:00",
        "phone": "061523020",
        "shop": "optician"
      }
    },
    {
      "type": "node",
      "id": 4246217904,
      "lat": 28.2116755,
      "lon": 84.008933,
      "tags": {
        "name": "Anish and Abiral Kirana Store",
        "name:ne": "अनिष एंड अविरल किराना स्टोर",
        "operator": "Amrit Pokhrel",
        "phone": "9806507990",
        "shop": "convenience"
      }
    },
    {
      "type": "node",
      "id": 4247933454,
      "lat": 28.2067412,
      "lon": 83.9931404,
      "tags": {
        "name": "Aayush Wine",
        "name:ne": "आयुष वाइन",
        "shop": "wine"
      }
    },
    {
      "type": "node",
      "id": 4248066439,
      "lat": 28.2116024,
      "lon": 83.9990382,
      "tags": {
        "name": "Pokhrel Kirana stores",
        "name:ne": "पोखरा किराना स्टोर",
        "shop": "convenience"
      }
    },
    {
      "type": "node",
      "id": 4248068644,
      "lat": 28.2117608,
      "lon": 83.9997773,
      "tags": {
        "name": "Sami Fresh House",
        "name:ne": "समी फ्रेश हाउस",
        "shop": "butcher"
      }
    },
    {
      "type": "node",
      "id": 4255908142,
      "lat": 28.2138599,
      "lon": 83.9757346,
      "tags": {
        "amenity": "fuel",
        "fuel:diesel": "yes",
        "fuel:octane_91": "yes",
        "name": "Kalika Petrol Pump",
        "name:ne": "कलिका पेट्रोल पम्प",
        "opening_hours": "sunrise-sunset",
        "shop": "no",
        "wheelchair": "no"
      }
    },
    {
      "type": "node",
      "id": 4256121101,
      "lat": 28.2390428,
      "lon": 83.9866131,
      "tags": {
        "name": "Kalika Fancy Store",
        "name:ne": "कालिका फ्यान्सी स्टोर",
        "shop": "clothes"
      }
    },
    {
      "type": "node",
      "id": 4256121102,
      "lat": 28.2394193,
      "lon": 83.9872837,
      "tags": {
        "name": "New Krian Electrical",
        "name:ne": "न्यु किरण इलेक्ट्रिकल",
        "shop": "electronics"
      }
    },
    {
      "type": "node",
      "id": 4260076314,
      "lat": 28.2371291,
      "lon": 83.9843255,
      "tags": {
        "name": "Bibek Ink",
        "name:ne": "विवेक इकं",
        "opening_hours": "sunrise-sunset",
        "shop": "computer",
        "wheelchair": "no"
      }
    },
    {
      "type": "node",
      "id": 4271361370,
      "lat": 28.2236742,
      "lon": 83.9912876,
      "tags": {
        "name": "Reem Clothing Store",
        "name:ne": "रीम पोशाष स्टोर",
        "opening_hours": "sunrise-sunset",
        "shop": "clothes",
        "wheelchair": "no"
      }
    },
    {
      "type": "node",
      "id": 4288684796,
      "lat": 28.2086727,
      "lon": 83.957045,
      "tags": {
        "addr:street": "Baidam Road",
        "name": "Highground Adventures",
        "name:ne": "हाइग्राउंड एदवेञ्चुर",
        "opening_hours": "Mo-Su 07:30-20:30",
        "shop": "travel_agency"
      }
    },
    {
      "type": "node",
      "id": 4289952190,
      "lat": 28.2455029,
      "lon": 83.9484811,
      "tags": {
        "shop": "ticket"
      }
    },
    {
      "type": "node",
      "id": 4296048412,
      "lat": 28.2094131,
      "lon": 83.985205,
      "tags": {
        "contact:phone": "061-521585",
        "name": "Pokhara Stationery",
        "name:ne": "पोखरा इस्टेसनरी",
        "shop": "stationery"
      }
    },
    {
      "type": "node",
      "id": 4296134961,
      "lat": 28.2098877,
      "lon": 83.9854876,
      "tags": {
        "name": "Paudel Mobile",
        "name:ne": "पौडेल मोबाइल",
        "shop": "mobile_phone"
      }
    },
    {
      "type": "node",
      "id": 4296134962,
      "lat": 28.2101492,
      "lon": 83.9852167,
      "tags": {
        "name": "Sathi Tours and Travels",
        "name:ne": "साथी टुरस एंड ट्राभलस",
        "shop": "travel_agency"
      }
    },
    {
      "type": "node",
      "id": 4296138312,
      "lat": 28.2232562,
      "lon": 83.9906772,
      "tags": {
        "name": "Aryan Mobile Gallery",
        "name:ne": "आर्यन मोबाइल ग्यालेरी",
        "shop": "mobile_phone"
      }
    },
    {
      "type": "node",
      "id": 4296138315,
      "lat": 28.2233821,
      "lon": 83.9901307,
      "tags": {
        "name": "Bastola Stores",
        "name:ne": "बास्तोला स्टोर्स",
        "shop": "convenience"
      }
    },
    {
      "type": "node",
      "id": 4296138317,
      "lat": 28.2232129,
      "lon": 83.9908469,
      "tags": {
        "name": "City Chasma",
        "name:ne": "सिटी चस्मा",
        "shop": "optician"
      }
    },
    {
      "type": "node",
      "id": 4296138325,
      "lat": 28.223205,
      "lon": 83.9910278,
      "tags": {
        "name": "Palikhe Dhaka Topi",
        "name:ne": "पालिखे ढाका टोपी",
        "shop": "clothes",
        "wheelchair": "no"
      }
    },
    {
      "type": "node",
      "id": 4296138326,
      "lat": 28.223209,
      "lon": 83.9909854,
      "tags": {
        "name": "Pandey Mobile",
        "name:ne": "पान्डे मोबाइल",
        "shop": "mobile_phone"
      }
    },
    {
      "type": "node",
      "id": 4296138330,
      "lat": 28.2232123,
      "lon": 83.9909485,
      "tags": {
        "name": "Seiko Mobile Center",
        "name:ne": "सिको मोबाइल सेन्टर",
        "shop": "mobile_phone"
      }
    },
    {
      "type": "node",
      "id": 4296155912,
      "lat": 28.211692,
      "lon": 83.9803225,
      "tags": {
        "name": "Handsome Parlour",
        "name:ne": "ह्याडसम पार्लोर",
        "shop": "hairdresser"
      }
    },
    {
      "type": "node",
      "id": 4296155913,
      "lat": 28.2115845,
      "lon": 83.9806967,
      "tags": {
        "name": "Hardware And Paints",
        "name:ne": "हार्डवेर एंड पेन्ट्स",
        "shop": "paint"
      }
    },
    {
      "type": "node",
      "id": 4296155916,
      "lat": 28.2115815,
      "lon": 83.980753,
      "tags": {
        "name": "Monsoon Motorcycle workshop",
        "name:ne": "मन्सुन मोटरसाइकल वोर्कसप",
        "shop": "car_repair"
      }
    },
    {
      "type": "node",
      "id": 4296155918,
      "lat": 28.2115762,
      "lon": 83.9807812,
      "tags": {
        "name": "Open Heart Baby Zone And Gift Gallery",
        "name:ne": "ओपन हर्ट बेब्बी जोन एंड गिफ्ट ग्यल्लेरी",
        "shop": "gift"
      }
    },
    {
      "type": "node",
      "id": 4296155919,
      "lat": 28.2116418,
      "lon": 83.9804794,
      "tags": {
        "name": "Pabitra Stores",
        "name:ne": "पबित्र स्टोर",
        "shop": "convenience"
      }
    },
    {
      "type": "node",
      "id": 4296155920,
      "lat": 28.2124596,
      "lon": 83.9779481,
      "tags": {
        "name": "Pasupati Paints",
        "name:ne": "पशुपति पेन्ट्स",
        "shop": "paint"
      }
    },
    {
      "type": "node",
      "id": 4296155922,
      "lat": 28.2122622,
      "lon": 83.9789378,
      "tags": {
        "name": "Taar Jali House",
        "name:ne": "तार जाली हाउस",
        "shop": "hardware"
      }
    },
    {
      "type": "node",
      "id": 4296174299,
      "lat": 28.2238206,
      "lon": 83.990893,
      "tags": {
        "name": "Hello Mobile Care",
        "name:ne": "हेल्लो मोबाइल कियर",
        "shop": "mobile_phone"
      }
    },
    {
      "type": "node",
      "id": 4296174300,
      "lat": 28.2238192,
      "lon": 83.9908002,
      "tags": {
        "name": "Moblile Store",
        "name:ne": "मोबाइल स्टोर",
        "shop": "mobile_phone"
      }
    },
    {
      "type": "node",
      "id": 4296174301,
      "lat": 28.2237912,
      "lon": 83.9909679,
      "tags": {
        "name": "Monika Beauty Parlour and Training Center",
        "name:ne": "मोनिका ब्युटि पार्लोर एण्ड तालिम केन्द्र",
        "shop": "beauty"
      }
    },
    {
      "type": "node",
      "id": 4296174302,
      "lat": 28.2238236,
      "lon": 83.9907683,
      "tags": {
        "name": "New Sound & Vision",
        "name:ne": "न्यु साउड् एण्ड भिजन",
        "shop": "music"
      }
    },
    {
      "type": "node",
      "id": 4296174303,
      "lat": 28.223826,
      "lon": 83.990939,
      "tags": {
        "name": "Om Fancy Store",
        "name:ne": "ऊँ फान्सी स्टोर",
        "shop": "clothes"
      }
    },
    {
      "type": "node",
      "id": 4297908558,
      "lat": 28.2801257,
      "lon": 83.9378994,
      "tags": {
        "shop": "convenience"
      }
    },
    {
      "type": "node",
      "id": 4298037349,
      "lat": 28.2131566,
      "lon": 83.957429,
      "tags": {
        "addr:city": "Pokhara",
        "addr:postcode": "33700",
        "description": "Travel Agency In Pokhara",
        "name": "Community Nepal",
        "name:ne": "कम्युनिटी नेपाल",
        "opening_hours": "06:00-22:00",
        "operator": "Som Thapa",
        "shop": "travel_agency"
      }
    },
    {
      "type": "node",
      "id": 4315906989,
      "lat": 28.2279824,
      "lon": 83.9993075,
      "tags": {
        "name": "Binayak's Home",
        "name:ne": "बिनायक्स होम सप",
        "shop": "books"
      }
    },
    {
      "type": "node",
      "id": 4318383363,
      "lat": 28.2140045,
      "lon": 83.9574338,
      "tags": {
        "name": "Pokhara Mountain Bike Center",
        "name:ne": "पोखरा माउन्टेन बाइक सेन्टर",
        "shop": "bicycle",
        "source": "survey"
      }
    },
    {
      "type": "node",
      "id": 4330629182,
      "lat": 28.2229761,
      "lon": 83.9736502,
      "tags": {
        "shop": "convenience"
      }
    },
    {
      "type": "node",
      "id": 4359931267,
      "lat": 28.2240861,
      "lon": 83.9880741,
      "tags": {
        "contact:phone": "061523058",
        "name": "Archies Gallery",
        "name:ne": "बिनायेक सुपर मार्केट",
        "opening_hours": "08:00-20:00",
        "shop": "gift"
      }
    },
    {
      "type": "node",
      "id": 4361274083,
      "lat": 28.2235508,
      "lon": 83.9913265,
      "tags": {
        "name": "Fishtail Colour Lab",
        "name:ne": "फिशटेल कलर ल्याब सप",
        "shop": "photo"
      }
    },
    {
      "type": "node",
      "id": 4361274086,
      "lat": 28.2238283,
      "lon": 83.9907292,
      "tags": {
        "contact:phone": "061520567,061521567",
        "name": "Pokhara Colour Lab",
        "name:ne": "पोखरा कलर ल्याब",
        "opening_hours": "Su-Fr 10:00-19:00",
        "shop": "photo",
        "wheelchair": "yes"
      }
    },
    {
      "type": "node",
      "id": 4361274087,
      "lat": 28.223826,
      "lon": 83.9908494,
      "tags": {
        "name": "R Kanchan Sunchadi",
        "name:ne": "आर.कन्चन सुनचादी",
        "opening_hours": "10 am to 7 pm Sunday To Friday",
        "shop": "jewelry",
        "wheelchair": "yes"
      }
    },
    {
      "type": "node",
      "id": 4361326063,
      "lat": 28.2241781,
      "lon": 83.9856046,
      "tags": {
        "name": "Laxmi Puja Electricals",
        "name:ne": "लक्ष्मी पुजा इलेकट्रीकल्स",
        "shop": "electronics"
      }
    },
    {
      "type": "node",
      "id": 4361342167,
      "lat": 28.2216077,
      "lon": 83.9874816,
      "tags": {
        "name": "Gautam Machinery",
        "name:ne": "गौतम मेसिनरी",
        "shop": "doityourself"
      }
    },
    {
      "type": "node",
      "id": 4361355840,
      "lat": 28.221754,
      "lon": 83.9875188,
      "tags": {
        "internet_access": "wlan",
        "name": "Nawadurga furniture",
        "name:ne": "नवदुर्गा फर्निचर",
        "shop": "furniture"
      }
    },
    {
      "type": "node",
      "id": 4361366693,
      "lat": 28.2240152,
      "lon": 83.9872391,
      "tags": {
        "name": "Bhagirath Stores",
        "name:ne": "भगिरथ स्टोर्स",
        "shop": "confectionery"
      }
    },
    {
      "type": "node",
      "id": 4361366695,
      "lat": 28.2241523,
      "lon": 83.9865176,
      "tags": {
        "name": "Devendra Sports",
        "name:ne": "देवेन्द्र स्पोर्ट्स",
        "shop": "sports"
      }
    },
    {
      "type": "node",
      "id": 4361366698,
      "lat": 28.2239925,
      "lon": 83.9874482,
      "tags": {
        "name": "Go Girl Fashion Stores",
        "name:ne": "गो गर्ल फेसन स्टोर्स",
        "shop": "fabric"
      }
    },
    {
      "type": "node",
      "id": 4361366699,
      "lat": 28.2240204,
      "lon": 83.9875839,
      "tags": {
        "name": "Good Will Electronics",
        "name:ne": "गुड विल इलेक्ट्रोनिक्स",
        "shop": "electronics"
      }
    },
    {
      "type": "node",
      "id": 4361366701,
      "lat": 28.2245235,
      "lon": 83.9847761,
      "tags": {
        "name": "Malla's Suppliers",
        "name:ne": "मल्ल सप्लार्यस",
        "shop": "paint"
      }
    },
    {
      "type": "node",
      "id": 4361366704,
      "lat": 28.2241824,
      "lon": 83.9864049,
      "tags": {
        "name": "Ridhi Siddhi Jewallery",
        "name:ne": "रिधी सिधी गहना पसल",
        "shop": "jewelry"
      }
    },
    {
      "type": "node",
      "id": 4361366706,
      "lat": 28.2242066,
      "lon": 83.9863318,
      "tags": {
        "name": "Shree Ratna Aavushan",
        "name:ne": "श्री रत्न अभुसन",
        "shop": "jewelry"
      }
    },
    {
      "type": "node",
      "id": 4361366707,
      "lat": 28.2244833,
      "lon": 83.9850356,
      "tags": {
        "contact:phone": "061533711",
        "name": "Sky Shop",
        "name:ne": "इस्कई सप",
        "shop": "sports"
      }
    },
    {
      "type": "node",
      "id": 4361366712,
      "lat": 28.2240669,
      "lon": 83.9894583,
      "tags": {
        "name": "malla emporium",
        "name:ne": "मल्ल इम्पोरियम सप",
        "shop": "clothes"
      }
    },
    {
      "type": "node",
      "id": 4362331302,
      "lat": 28.2231089,
      "lon": 83.9910145,
      "tags": {
        "contact:phone": "061-539915",
        "name": "Argaukhola Sun Chandi Pasal",
        "shop": "jewelry",
        "source": "2cpokhara"
      }
    },
    {
      "type": "node",
      "id": 4362371084,
      "lat": 28.2194701,
      "lon": 83.9908715,
      "tags": {
        "shop": "convenience"
      }
    },
    {
      "type": "node",
      "id": 4385012425,
      "lat": 28.2233523,
      "lon": 83.9888072,
      "tags": {
        "name": "Prabha's Tailor",
        "name:ne": "प्रभास टेलर",
        "opening_hours": "Su-Fr 10:30-19:00",
        "operator": "Prabha Laxmi Ligal",
        "payment:cash": "yes",
        "phone": "+9779846049248",
        "shop": "tailor"
      }
    },
    {
      "type": "node",
      "id": 4401893092,
      "lat": 28.2150866,
      "lon": 83.9580727,
      "tags": {
        "name:es": "Any Tours and Travels",
        "name:ne": "ऐनी टुर्स एण्ड ट्राभल",
        "shop": "travel_agency"
      }
    },
    {
      "type": "node",
      "id": 4402076291,
      "lat": 28.217752,
      "lon": 83.9854669,
      "tags": {
        "name:en": "New Apex info-solution",
        "name:ne": "न्यु एपेक्स इन्फो-सोलुसन",
        "phone": "061535690",
        "shop": "computer"
      }
    },
    {
      "type": "node",
      "id": 4408118982,
      "lat": 28.2096397,
      "lon": 83.9569005,
      "tags": {
        "name": "Nepal Mandala Book Shop",
        "shop": "books"
      }
    },
    {
      "type": "node",
      "id": 4417295237,
      "lat": 28.2427788,
      "lon": 83.9848172,
      "tags": {
        "repair": "yes",
        "shop": "electronics"
      }
    },
    {
      "type": "node",
      "id": 4443870490,
      "lat": 28.2127868,
      "lon": 83.9582966,
      "tags": {
        "name:en": "Pokhara Dynamic Spa",
        "shop": "cosmetics"
      }
    },
    {
      "type": "node",
      "id": 4443894389,
      "lat": 28.2091157,
      "lon": 83.9629904,
      "tags": {
        "name:en": "Goose Store",
        "shop": "supermarket"
      }
    },
    {
      "type": "node",
      "id": 4443894390,
      "lat": 28.2176692,
      "lon": 83.9590423,
      "tags": {
        "name:en": "Electronics & Mobile shop",
        "shop": "mobile_phone"
      }
    },
    {
      "type": "node",
      "id": 4454230089,
      "lat": 28.2157845,
      "lon": 83.9583787,
      "tags": {
        "name": "German Bakery",
        "name:de": "Deutsche Bäckerei",
        "name:en": "German Bakery",
        "shop": "bakery"
      }
    },
    {
      "type": "node",
      "id": 4455137589,
      "lat": 28.2202188,
      "lon": 83.9913202,
      "tags": {
        "addr:street": "Naya Bazar",
        "email": "sanushanu92@gmail.com",
        "name:en": "Koshi Sound & Light",
        "operator": "Bappa Roy",
        "phone": "009779846026660",
        "shop": "electronics"
      }
    },
    {
      "type": "node",
      "id": 4455984290,
      "lat": 28.2200412,
      "lon": 83.9912703,
      "tags": {
        "addr:housenumber": "231",
        "addr:street": "Naya Bazar",
        "email": "sanushanu92@gmail.com",
        "name:en": "Koshi Sound & Light",
        "opening_hours": "24/7",
        "operator": "Alex Roy",
        "phone": "009779846026660",
        "shop": "electronics"
      }
    },
    {
      "type": "node",
      "id": 4461369245,
      "lat": 28.2119577,
      "lon": 83.9871033,
      "tags": {
        "name": "Sujan Stores",
        "shop": "convenience",
        "source": "2cpokhara"
      }
    },
    {
      "type": "node",
      "id": 4461436291,
      "lat": 28.2094526,
      "lon": 83.9865044,
      "tags": {
        "shop": "electronics"
      }
    },